{
  "version": 0.6,
  "generator": "Overpass API 0.7.56.2 b688b00f",
  "osm3s": {
    "timestamp_osm_base": "2020-04-05T07:17:02Z",
    "copyright": "The data included in this document is from www.openstreetmap.org. The data is made available under ODbL."
  },
  "elements": [

{
  "type": "node",
  "id": 454632,
  "lat": 46.9999187,
  "lon": 8.7977842,
  "tags": {
    "aerialway": "station",
    "ele": "1811",
    "name": "Bergstation Sesselbahn Sternen",
    "operator": "SSKS",
    "uic_name": "Klein Sternen",
    "uic_ref": "8530408"
  }
},
{
  "type": "node",
  "id": 616810,
  "lat": 46.1835291,
  "lon": 6.8346732,
  "tags": {
    "aerialway": "station",
    "name": "Crosets"
  }
},
{
  "type": "node",
  "id": 616814,
  "lat": 46.1772269,
  "lon": 6.8402226,
  "tags": {
    "aerialway": "station",
    "ele": "1933",
    "name": "Crosets",
    "operator": "TPS",
    "uic_name": "Marcheuson TPS",
    "uic_ref": "8530751"
  }
},
{
  "type": "node",
  "id": 616940,
  "lat": 46.1838352,
  "lon": 6.8341134,
  "tags": {
    "aerialway": "station",
    "ele": "1670",
    "name": "Mossettes",
    "operator": "TPS",
    "uic_name": "Crosets TPS, Les",
    "uic_ref": "8530078"
  }
},
{
  "type": "node",
  "id": 617065,
  "lat": 46.2316969,
  "lon": 6.7882261,
  "tags": {
    "aerialway": "station",
    "name": "Pierre Longue"
  }
},
{
  "type": "node",
  "id": 617262,
  "lat": 46.2366924,
  "lon": 6.8581240,
  "tags": {
    "aerialway": "station",
    "ele": "1350",
    "name": "Foilleuse",
    "operator": "TMLF/TMLT",
    "uic_name": "Morgins TMLF",
    "uic_ref": "8530070"
  }
},
{
  "type": "node",
  "id": 617264,
  "lat": 46.2250285,
  "lon": 6.8612753,
  "tags": {
    "aerialway": "station",
    "ele": "1850",
    "name": "Foilleuse",
    "operator": "TMLF/TMLT",
    "uic_name": "Foilleuse TMLF, La",
    "uic_ref": "8530071"
  }
},
{
  "type": "node",
  "id": 617326,
  "lat": 46.2236475,
  "lon": 6.8594097,
  "tags": {
    "aerialway": "station",
    "ele": "1870",
    "name": "Chaux",
    "operator": "TM"
  }
},
{
  "type": "node",
  "id": 618088,
  "lat": 46.1752239,
  "lon": 6.8457271,
  "tags": {
    "aerialway": "station",
    "ele": "1936",
    "name": "Croix-de-Culet",
    "operator": "TCP",
    "uic_name": "Planachaux",
    "uic_ref": "8501450"
  }
},
{
  "type": "node",
  "id": 618148,
  "lat": 46.1750418,
  "lon": 6.8452063,
  "tags": {
    "aerialway": "station",
    "ele": "1936",
    "name": "Planachaux",
    "operator": "TCP",
    "uic_name": "Planachaux",
    "uic_ref": "8501450"
  }
},
{
  "type": "node",
  "id": 11399285,
  "lat": 46.4019109,
  "lon": 7.7778022,
  "tags": {
    "aerialway": "station",
    "ele": "1411",
    "name": "Wiler",
    "operator": "LWL",
    "uic_name": "Wiler (Lötschen) LWL",
    "uic_ref": "8507500",
    "wheelchair": "yes"
  }
},
{
  "type": "node",
  "id": 11399290,
  "lat": 46.4110187,
  "lon": 7.7742818,
  "tags": {
    "aerialway": "station",
    "ele": "1977",
    "name": "Lauchernalp",
    "operator": "LWL",
    "uic_name": "Lauchernalp",
    "uic_ref": "8507460"
  }
},
{
  "type": "node",
  "id": 11416005,
  "lat": 46.4766079,
  "lon": 7.6635536,
  "tags": {
    "aerialway": "station",
    "contact:email": "info@sunnbuel.ch",
    "contact:phone": "+41 33 675 81 41",
    "contact:website": "http://www.sunnbuel.ch",
    "ele": "1205",
    "name": "Kandersteg (Talst. Sunnbüel)",
    "operator": "LKS",
    "uic_name": "Kandersteg (Talst. Sunnbüel)",
    "uic_ref": "8507262",
    "wheelchair": "yes"
  }
},
{
  "type": "node",
  "id": 11417694,
  "lat": 46.4975529,
  "lon": 7.6827488,
  "tags": {
    "aerialway": "station",
    "ele": "1203",
    "name": "Kandersteg (Talst. Oeschinen)",
    "operator": "GKO",
    "uic_name": "Kandersteg (Talst. Oeschinen)",
    "uic_ref": "8507594"
  }
},
{
  "type": "node",
  "id": 11417702,
  "lat": 46.5020573,
  "lon": 7.6969711,
  "tags": {
    "aerialway": "station",
    "ele": "1688",
    "name": "Oeschinen (Bergstation)",
    "operator": "GKO",
    "uic_name": "Oeschinen (Bergstation)",
    "uic_ref": "8507593"
  }
},
{
  "type": "node",
  "id": 14313436,
  "lat": 47.5563809,
  "lon": 13.6450910,
  "tags": {
    "addr:city": "Hallstatt",
    "addr:housenumber": "21",
    "addr:postcode": "4830",
    "addr:street": "Salzbergstraße",
    "aerialway": "station",
    "name": "Salzbergbahn Hallstatt",
    "wheelchair": "yes"
  }
},
{
  "type": "node",
  "id": 14313440,
  "lat": 47.5603337,
  "lon": 13.6430300,
  "tags": {
    "aerialway": "station",
    "wheelchair": "yes"
  }
},
{
  "type": "node",
  "id": 15757454,
  "lat": 47.0609326,
  "lon": 9.8345607,
  "tags": {
    "aerialway": "station",
    "ele": "2103",
    "name": "Rätikonbahn"
  }
},
{
  "type": "node",
  "id": 15757470,
  "lat": 47.0647269,
  "lon": 9.8385079,
  "tags": {
    "aerialway": "station",
    "ele": "2030",
    "name": "Hüttenkopfbahn"
  }
},
{
  "type": "node",
  "id": 15757486,
  "lat": 47.0733979,
  "lon": 9.8491718,
  "tags": {
    "aerialway": "station",
    "ele": "1636",
    "name": "Hüttenkopfbahn"
  }
},
{
  "type": "node",
  "id": 15757518,
  "lat": 47.0652938,
  "lon": 9.8437765,
  "tags": {
    "aerialway": "station",
    "ele": "1905",
    "name": "Matschwitz"
  }
},
{
  "type": "node",
  "id": 15757898,
  "lat": 47.0707817,
  "lon": 9.8602448,
  "tags": {
    "aerialway": "station",
    "ele": "1485",
    "name": "Matschwitz"
  }
},
{
  "type": "node",
  "id": 17134313,
  "lat": 47.6598182,
  "lon": 11.9199889,
  "tags": {
    "aerialway": "station",
    "name": "Bergstation",
    "wheelchair": "yes"
  }
},
{
  "type": "node",
  "id": 21133692,
  "lat": 47.0659616,
  "lon": 9.8556025,
  "tags": {
    "aerialway": "station",
    "ele": "1643",
    "name": "Rätikonbahn"
  }
},
{
  "type": "node",
  "id": 21389435,
  "lat": 47.9359514,
  "lon": 7.8654867,
  "tags": {
    "aerialway": "station",
    "ele": "473",
    "name": "Talstation Schauinslandbahn",
    "toilets:wheelchair": "yes",
    "wheelchair": "yes"
  }
},
{
  "type": "node",
  "id": 21634633,
  "lat": 47.5865401,
  "lon": 13.0172195,
  "tags": {
    "aerialway": "station",
    "ele": "1194",
    "name": "Jennerbahn Mittelstation",
    "name:zh": "耶拿峰纜車"
  }
},
{
  "type": "node",
  "id": 21704111,
  "lat": 45.5151144,
  "lon": 6.6686538,
  "tags": {
    "aerialway": "station",
    "aerialway:access": "entry",
    "ele": "1999",
    "name": "Golf"
  }
},
{
  "type": "node",
  "id": 21704113,
  "lat": 45.4979591,
  "lon": 6.6936140,
  "tags": {
    "aerialway": "station"
  }
},
{
  "type": "node",
  "id": 21704114,
  "lat": 45.5105280,
  "lon": 6.6638860,
  "tags": {
    "aerialway": "station",
    "aerialway:access": "exit",
    "ele": "2132",
    "name": "Golf"
  }
},
{
  "type": "node",
  "id": 21704115,
  "lat": 45.4935411,
  "lon": 6.7357267,
  "tags": {
    "aerialway": "station",
    "aerialway:access": "both",
    "name": "Bellecôte"
  }
},
{
  "type": "node",
  "id": 25897583,
  "lat": 45.1929661,
  "lon": 5.7261004,
  "tags": {
    "aerialway": "station",
    "public_transport": "stop_position",
    "source": "v2;cadastre-dgi-fr source : Direction Générale des Impôts - Cadastre;mise à jour : 2009"
  }
},
{
  "type": "node",
  "id": 25946435,
  "lat": 45.5170548,
  "lon": 6.6510846,
  "tags": {
    "aerialway": "station",
    "aerialway:access": "exit",
    "name": "Adrets"
  }
},
{
  "type": "node",
  "id": 25946437,
  "lat": 45.5124801,
  "lon": 6.6989642,
  "tags": {
    "aerialway": "station",
    "aerialway:access": "entry",
    "name": "Arpette"
  }
},
{
  "type": "node",
  "id": 25946446,
  "lat": 45.5173892,
  "lon": 6.6597941,
  "tags": {
    "aerialway": "station",
    "aerialway:access": "entry",
    "name": "Adrets"
  }
},
{
  "type": "node",
  "id": 25946466,
  "lat": 45.4925287,
  "lon": 6.7095314,
  "tags": {
    "aerialway": "station",
    "aerialway:access": "exit",
    "name": "Les Blanchets"
  }
},
{
  "type": "node",
  "id": 25946536,
  "lat": 45.5106196,
  "lon": 6.7250262,
  "tags": {
    "aerialway": "station",
    "aerialway:access": "entry",
    "name": "Inversens"
  }
},
{
  "type": "node",
  "id": 25946572,
  "lat": 45.5052650,
  "lon": 6.6772151,
  "tags": {
    "aerialway": "station",
    "aerialway:access": "both",
    "name": "Grande Rochette"
  }
},
{
  "type": "node",
  "id": 25946573,
  "lat": 45.4942802,
  "lon": 6.7344264,
  "tags": {
    "aerialway": "station",
    "aerialway:access": "exit",
    "name": "Inversens"
  }
},
{
  "type": "node",
  "id": 25946580,
  "lat": 45.4850496,
  "lon": 6.7109173,
  "tags": {
    "aerialway": "station",
    "aerialway:access": "exit",
    "name": "Rossa"
  }
},
{
  "type": "node",
  "id": 25946587,
  "lat": 45.4731397,
  "lon": 6.7012485,
  "tags": {
    "aerialway": "station",
    "aerialway:access": "entry",
    "name": "Rossa"
  }
},
{
  "type": "node",
  "id": 25946595,
  "lat": 45.5066033,
  "lon": 6.7028748,
  "tags": {
    "aerialway": "station",
    "aerialway:access": "entry",
    "name": "Col de Forcle"
  }
},
{
  "type": "node",
  "id": 25946626,
  "lat": 45.5226029,
  "lon": 6.7167121,
  "tags": {
    "aerialway": "station",
    "aerialway:access": "exit",
    "name": "Arpette"
  }
},
{
  "type": "node",
  "id": 25946649,
  "lat": 45.5116048,
  "lon": 6.6984685,
  "tags": {
    "aerialway": "station",
    "aerialway:access": "entry",
    "name": "Les Blanchets"
  }
},
{
  "type": "node",
  "id": 25946659,
  "lat": 45.4894619,
  "lon": 6.7091676,
  "tags": {
    "aerialway": "station",
    "aerialway:access": "entry",
    "name": "Carella"
  }
},
{
  "type": "node",
  "id": 25947232,
  "lat": 45.4748155,
  "lon": 6.7008347,
  "tags": {
    "aerialway": "station",
    "aerialway:access": "exit",
    "name": "Borseliers"
  }
},
{
  "type": "node",
  "id": 25947317,
  "lat": 45.5095029,
  "lon": 6.6651392,
  "tags": {
    "aerialway": "station",
    "aerialway:access": "exit",
    "ele": "2121",
    "name": "Stade"
  }
},
{
  "type": "node",
  "id": 25947321,
  "lat": 45.5346771,
  "lon": 6.6376866,
  "tags": {
    "aerialway": "station",
    "aerialway:access": "entry"
  }
},
{
  "type": "node",
  "id": 25947342,
  "lat": 45.5084918,
  "lon": 6.6678395,
  "tags": {
    "aerialway": "station",
    "aerialway:access": "entry",
    "ele": "2080",
    "name": "Stade"
  }
},
{
  "type": "node",
  "id": 25947360,
  "lat": 45.4888565,
  "lon": 6.6755294,
  "tags": {
    "aerialway": "station",
    "aerialway:access": "exit",
    "name": "Verdons Nord"
  }
},
{
  "type": "node",
  "id": 25947388,
  "lat": 45.4730302,
  "lon": 6.6894988,
  "tags": {
    "aerialway": "station",
    "aerialway:access": "entry",
    "name": "Borseliers"
  }
},
{
  "type": "node",
  "id": 25947423,
  "lat": 45.5325216,
  "lon": 6.6395939,
  "tags": {
    "aerialway": "station",
    "aerialway:access": "exit"
  }
},
{
  "type": "node",
  "id": 25947427,
  "lat": 45.4998707,
  "lon": 6.6754934,
  "tags": {
    "aerialway": "station",
    "aerialway:access": "entry",
    "name": "Verdons Nord"
  }
},
{
  "type": "node",
  "id": 26025730,
  "lat": 45.4899476,
  "lon": 6.7709329,
  "tags": {
    "aerialway": "station",
    "aerialway:access": "both",
    "name": "Bellecôte"
  }
},
{
  "type": "node",
  "id": 26025732,
  "lat": 45.4900107,
  "lon": 6.7711745,
  "tags": {
    "aerialway": "station",
    "aerialway:access": "entry",
    "name": "Traversée"
  }
},
{
  "type": "node",
  "id": 26025733,
  "lat": 45.4909140,
  "lon": 6.7483794,
  "tags": {
    "aerialway": "station",
    "aerialway:access": "both",
    "name": "Bellecôte"
  }
},
{
  "type": "node",
  "id": 26025737,
  "lat": 45.4992568,
  "lon": 6.7425178,
  "tags": {
    "aerialway": "station",
    "aerialway:access": "entry",
    "ele": "2300",
    "name": "Chalet de Bellecôte",
    "operator": "SAP"
  }
},
{
  "type": "node",
  "id": 26025738,
  "lat": 45.4936737,
  "lon": 6.7496409,
  "tags": {
    "aerialway": "station",
    "aerialway:access": "exit",
    "ele": "2587",
    "operator": "SAP"
  }
},
{
  "type": "node",
  "id": 26025741,
  "lat": 45.5229757,
  "lon": 6.7302637,
  "tags": {
    "aerialway": "station",
    "aerialway:access": "entry",
    "ele": "2066",
    "name": "Crozats",
    "operator": "SAP"
  }
},
{
  "type": "node",
  "id": 26025742,
  "lat": 45.5174029,
  "lon": 6.7189484,
  "tags": {
    "aerialway": "station",
    "aerialway:access": "exit",
    "ele": "2377",
    "name": "Crozats",
    "operator": "SAP"
  }
},
{
  "type": "node",
  "id": 26732788,
  "lat": 46.4472775,
  "lon": 7.4141644,
  "tags": {
    "aerialway": "station",
    "ele": "1585;1578",
    "name": "Wallegg",
    "operator": "BLB;LB",
    "uic_name": "Wallegg;Wallegg (Talst. 2. Sekt.)",
    "uic_ref": "8530274;8531005"
  }
},
{
  "type": "node",
  "id": 26732796,
  "lat": 46.4344085,
  "lon": 7.4133453,
  "tags": {
    "aerialway": "station",
    "name": "Mülkerblatten",
    "operator": "BLB",
    "uic_name": "Mülkerblatten",
    "uic_ref": "8530275"
  }
},
{
  "type": "node",
  "id": 26732810,
  "lat": 46.4321023,
  "lon": 7.4104321,
  "tags": {
    "aerialway": "station",
    "name": "Roszun"
  }
},
{
  "type": "node",
  "id": 26732815,
  "lat": 46.4288477,
  "lon": 7.4088953,
  "tags": {
    "aerialway": "station",
    "alt_name": "Leiterli",
    "ele": "1947",
    "name": "Betelberg",
    "operator": "BLB",
    "uic_name": "Betelberg BLB",
    "uic_ref": "8530270"
  }
},
{
  "type": "node",
  "id": 26732821,
  "lat": 46.4260952,
  "lon": 7.4069448,
  "tags": {
    "aerialway": "station",
    "ele": "2001",
    "name": "Leiterli",
    "source": "Bundesamt für Verkehr (BAV), DIDOK 2016",
    "uic_name": "Leiterli",
    "uic_ref": "8530271"
  }
},
{
  "type": "node",
  "id": 26732825,
  "lat": 46.4404985,
  "lon": 7.4289053,
  "tags": {
    "aerialway": "station",
    "ele": "1634;1631",
    "name": "Stoss",
    "operator": "LB",
    "uic_name": "Lenk Stoss;Stoss (Talst. 2. Sekt.)",
    "uic_ref": "8530269;8531004"
  }
},
{
  "type": "node",
  "id": 26732844,
  "lat": 46.4410674,
  "lon": 7.4087625,
  "tags": {
    "aerialway": "station",
    "ele": "1800",
    "name": "Haslerberg",
    "source": "Bundesamt für Verkehr (BAV), DIDOK 2016",
    "uic_name": "Haslerberg",
    "uic_ref": "8530272"
  }
},
{
  "type": "node",
  "id": 26732846,
  "lat": 46.4583630,
  "lon": 7.4306763,
  "tags": {
    "aerialway": "station",
    "ele": "1140",
    "name": "Wallegg",
    "source": "Bundesamt für Verkehr (BAV), DIDOK 2016",
    "uic_name": "Lenk Wallegg (Talstation)",
    "uic_ref": "8531077"
  }
},
{
  "type": "node",
  "id": 26793623,
  "lat": 47.0941998,
  "lon": 11.6668863,
  "tags": {
    "aerialway": "station",
    "name": "Sommerberg"
  }
},
{
  "type": "node",
  "id": 26793626,
  "lat": 47.0774338,
  "lon": 11.6705868,
  "tags": {
    "aerialway": "station",
    "name": "Gletscherbus 2"
  }
},
{
  "type": "node",
  "id": 26793628,
  "lat": 47.0773964,
  "lon": 11.6708913,
  "tags": {
    "aerialway": "station",
    "name": "Fernerhaus"
  }
},
{
  "type": "node",
  "id": 26793629,
  "lat": 47.0771780,
  "lon": 11.6725266,
  "tags": {
    "aerialway": "station",
    "name": "Gletscherbus 3",
    "wheelchair": "yes"
  }
},
{
  "type": "node",
  "id": 26793630,
  "lat": 47.0626883,
  "lon": 11.6805632,
  "tags": {
    "aerialway": "station",
    "aerialway:access": "both",
    "ele": "3250",
    "name": "Gletscherbus 3"
  }
},
{
  "type": "node",
  "id": 26793631,
  "lat": 47.0499636,
  "lon": 11.6787788,
  "tags": {
    "aerialway": "station",
    "name": "Schlegeis"
  }
},
{
  "type": "node",
  "id": 26793632,
  "lat": 47.0587111,
  "lon": 11.6744338,
  "tags": {
    "aerialway": "station",
    "name": "Schlegeis"
  }
},
{
  "type": "node",
  "id": 26793657,
  "lat": 47.0568399,
  "lon": 11.6568656,
  "tags": {
    "aerialway": "station"
  }
},
{
  "type": "node",
  "id": 26793658,
  "lat": 47.0771736,
  "lon": 11.6712762,
  "tags": {
    "aerialway": "station",
    "name": "Gefrorene Wand"
  }
},
{
  "type": "node",
  "id": 26793782,
  "lat": 47.0636416,
  "lon": 11.6795346,
  "tags": {
    "aerialway": "station",
    "ele": "3250",
    "name": "Gefrorene Wand 3b"
  }
},
{
  "type": "node",
  "id": 26797838,
  "lat": 46.4473859,
  "lon": 7.4751279,
  "tags": {
    "aerialway": "station",
    "ele": "1658",
    "name": "Metschmaad",
    "source": "Bundesamt für Verkehr (BAV), DIDOK 2016",
    "uic_name": "Metschmaad",
    "uic_ref": "8531078"
  }
},
{
  "type": "node",
  "id": 26805918,
  "lat": 46.4568719,
  "lon": 7.5129641,
  "tags": {
    "aerialway": "station",
    "ele": "1715",
    "name": "Adelboden Geils (Hahnenmoos)",
    "operator": "BA",
    "uic_name": "Adelboden Geils (Hahnenmoos)",
    "uic_ref": "8530314"
  }
},
{
  "type": "node",
  "id": 26805919,
  "lat": 46.4533157,
  "lon": 7.4953758,
  "tags": {
    "aerialway": "station",
    "ele": "1955",
    "name": "Hahnenmoos",
    "operator": "BA",
    "uic_name": "Hahnenmoos",
    "uic_ref": "8530315"
  }
},
{
  "type": "node",
  "id": 26805920,
  "lat": 46.4563565,
  "lon": 7.5135033,
  "tags": {
    "aerialway": "station",
    "name": "Geils",
    "uic_name": "Adelboden Geils (Luegli)",
    "uic_ref": "8530316"
  }
},
{
  "type": "node",
  "id": 26805921,
  "lat": 46.4409263,
  "lon": 7.5076356,
  "tags": {
    "aerialway": "station",
    "name": "Luegli",
    "operator": "SGL",
    "uic_name": "Luegli",
    "uic_ref": "8530317"
  }
},
{
  "type": "node",
  "id": 26805922,
  "lat": 46.4574839,
  "lon": 7.5137218,
  "tags": {
    "aerialway": "station",
    "ele": "1707",
    "name": "Geils",
    "uic_name": "Adelboden Geils (Laveygrat)",
    "uic_ref": "8530318"
  }
},
{
  "type": "node",
  "id": 26805923,
  "lat": 46.4624875,
  "lon": 7.4947786,
  "tags": {
    "aerialway": "station",
    "name": "Lavey",
    "operator": "SGLg",
    "uic_name": "Laveygrat",
    "uic_ref": "8530319"
  }
},
{
  "type": "node",
  "id": 26805977,
  "lat": 46.4718074,
  "lon": 7.5179441,
  "tags": {
    "aerialway": "station",
    "ele": "1975",
    "name": "Sillerenbühl",
    "operator": "BA",
    "uic_name": "Sillerenbühl",
    "uic_ref": "8530311"
  }
},
{
  "type": "node",
  "id": 26806030,
  "lat": 46.4842687,
  "lon": 7.5195276,
  "tags": {
    "aerialway": "station",
    "ele": "1538",
    "name": "Aebi (Silleren)",
    "operator": "BA",
    "uic_name": "Adelboden Aebi (Silleren)",
    "uic_ref": "8531130"
  }
},
{
  "type": "node",
  "id": 26806031,
  "lat": 46.4723023,
  "lon": 7.5184051,
  "tags": {
    "aerialway": "station",
    "ele": "1970",
    "name": "Sillerenbühl",
    "operator": "BA",
    "uic_name": "Sillerenbühl (Aebi)",
    "uic_ref": "8530922"
  }
},
{
  "type": "node",
  "id": 27117555,
  "lat": 47.4274775,
  "lon": 12.2140594,
  "tags": {
    "aerialway": "station",
    "name": "Alpenrosenbahn I"
  }
},
{
  "type": "node",
  "id": 27117578,
  "lat": 47.4222840,
  "lon": 12.2310443,
  "tags": {
    "aerialway": "station",
    "name": "Alpenrosenbahn I"
  }
},
{
  "type": "node",
  "id": 27117588,
  "lat": 47.4133164,
  "lon": 12.2473628,
  "tags": {
    "aerialway": "station",
    "name": "Alpenrosenbahn II"
  }
},
{
  "type": "node",
  "id": 27149259,
  "lat": 47.4113058,
  "lon": 12.2477220,
  "tags": {
    "aerialway": "station",
    "public_transport": "station"
  }
},
{
  "type": "node",
  "id": 27277533,
  "lat": 47.4026851,
  "lon": 12.2525979,
  "tags": {
    "aerialway": "station",
    "aerialway:access": "exit",
    "name": "Windauberg",
    "public_transport": "station"
  }
},
{
  "type": "node",
  "id": 27277536,
  "lat": 47.4019577,
  "lon": 12.2642962,
  "tags": {
    "aerialway": "station",
    "aerialway:access": "exit",
    "name": "Gampenkogel"
  }
},
{
  "type": "node",
  "id": 27277537,
  "lat": 47.4122388,
  "lon": 12.2474427,
  "tags": {
    "aerialway": "station",
    "name": "Talkaser",
    "public_transport": "station"
  }
},
{
  "type": "node",
  "id": 27277538,
  "lat": 47.4117716,
  "lon": 12.2537707,
  "tags": {
    "aerialway": "station",
    "name": "Talkaser",
    "public_transport": "station"
  }
},
{
  "type": "node",
  "id": 27337827,
  "lat": 47.1636727,
  "lon": 11.7431126,
  "tags": {
    "aerialway": "station",
    "name": "Rastkogelbahn"
  }
},
{
  "type": "node",
  "id": 29393216,
  "lat": 47.3932067,
  "lon": 14.8197855,
  "tags": {
    "aerialway": "station"
  }
},
{
  "type": "node",
  "id": 29393220,
  "lat": 47.3811254,
  "lon": 14.8130016,
  "tags": {
    "aerialway": "station",
    "source": "survey"
  }
},
{
  "type": "node",
  "id": 29883850,
  "lat": 46.4079533,
  "lon": 11.5918943,
  "tags": {
    "aerialway": "station",
    "aerialway:access": "both",
    "aerialway:summer:access": "both",
    "name": "Paolina"
  }
},
{
  "type": "node",
  "id": 29883961,
  "lat": 46.4156768,
  "lon": 11.6144507,
  "tags": {
    "aerialway": "station",
    "aerialway:access": "both",
    "aerialway:summer:access": "both",
    "ele": "2125",
    "name": "Paolina"
  }
},
{
  "type": "node",
  "id": 29916827,
  "lat": 46.4306435,
  "lon": 11.7227894,
  "tags": {
    "aerialway": "station",
    "name": "Buffaure"
  }
},
{
  "type": "node",
  "id": 29916846,
  "lat": 46.4751073,
  "lon": 11.7457607,
  "tags": {
    "aerialway": "station",
    "ele": "1440",
    "name": "Campitello",
    "wheelchair": "limited"
  }
},
{
  "type": "node",
  "id": 29916850,
  "lat": 46.4743643,
  "lon": 11.7747887,
  "tags": {
    "aerialway": "station",
    "name": "Canazei"
  }
},
{
  "type": "node",
  "id": 29916851,
  "lat": 46.4811695,
  "lon": 11.7881708,
  "tags": {
    "aerialway": "station",
    "ele": "1926",
    "name": "Pecol"
  }
},
{
  "type": "node",
  "id": 29916852,
  "lat": 46.4746898,
  "lon": 11.8017630,
  "tags": {
    "aerialway": "station",
    "ele": "2389",
    "name": "Col dei Rossi"
  }
},
{
  "type": "node",
  "id": 29916899,
  "lat": 46.4886278,
  "lon": 11.8106634,
  "tags": {
    "aerialway": "station",
    "name": "Sass Pordoi"
  }
},
{
  "type": "node",
  "id": 29916900,
  "lat": 46.5003414,
  "lon": 11.8078014,
  "tags": {
    "aerialway": "station",
    "name": "Sass Pordoi"
  }
},
{
  "type": "node",
  "id": 30440569,
  "lat": 46.9901979,
  "lon": 8.6385194,
  "tags": {
    "aerialway": "station",
    "ele": "645",
    "name": "Talstation Morschach",
    "operator": "LMS",
    "uic_name": "Morschach Talstat. (Luftseilb)",
    "uic_ref": "8505089"
  }
},
{
  "type": "node",
  "id": 30440598,
  "lat": 46.9821837,
  "lon": 8.6642419,
  "tags": {
    "aerialway": "station",
    "ele": "1300",
    "name": "Stoos Bergstat. (Luftseilb)",
    "operator": "LMS",
    "uic_name": "Stoos Bergstat. (Luftseilb)",
    "uic_ref": "8530393"
  }
},
{
  "type": "node",
  "id": 30440600,
  "lat": 46.9806466,
  "lon": 8.6627012,
  "tags": {
    "aerialway": "station",
    "name": "Stoos (Mettlen/Fronalpstock)",
    "public_transport": "station",
    "uic_ref": "8530391"
  }
},
{
  "type": "node",
  "id": 30440602,
  "lat": 46.9768474,
  "lon": 8.6563076,
  "tags": {
    "aerialway": "station",
    "name": "Mettlen (Stoos)",
    "public_transport": "station",
    "uic_ref": "8531024"
  }
},
{
  "type": "node",
  "id": 30440604,
  "lat": 46.9769583,
  "lon": 8.6557901,
  "tags": {
    "aerialway": "station",
    "name": "Mettlen (Fronalpstock)",
    "public_transport": "station",
    "uic_ref": "8530984"
  }
},
{
  "type": "node",
  "id": 30440606,
  "lat": 46.9694880,
  "lon": 8.6371906,
  "tags": {
    "aerialway": "station",
    "ele": "1735",
    "name": "Fronalpstock",
    "public_transport": "station",
    "uic_name": "Fronalpstock",
    "uic_ref": "8530392"
  }
},
{
  "type": "node",
  "id": 30552700,
  "lat": 45.2644129,
  "lon": 6.0156772,
  "tags": {
    "aerialway": "station",
    "name": "Grand Cerf"
  }
},
{
  "type": "node",
  "id": 30552701,
  "lat": 45.2571215,
  "lon": 6.0305870,
  "tags": {
    "aerialway": "station",
    "ele": "2100",
    "name": "Grand Cerf",
    "ref": "15"
  }
},
{
  "type": "node",
  "id": 30859200,
  "lat": 46.5796794,
  "lon": 7.7084081,
  "tags": {
    "aerialway": "station",
    "ele": "1411",
    "name": "Ramslauenen",
    "operator": "SKRa",
    "uic_name": "Ramslauenen",
    "uic_ref": "8530299"
  }
},
{
  "type": "node",
  "id": 30859210,
  "lat": 46.5854827,
  "lon": 7.7234564,
  "tags": {
    "aerialway": "station",
    "ele": "928",
    "name": "Kiental",
    "operator": "SKRa",
    "uic_name": "Kiental SKRa",
    "uic_ref": "8530298"
  }
},
{
  "type": "node",
  "id": 30919443,
  "lat": 45.2562164,
  "lon": 5.9954039,
  "tags": {
    "aerialway": "station",
    "name": "Bouquetins"
  }
},
{
  "type": "node",
  "id": 30983813,
  "lat": 45.9355164,
  "lon": 6.8538115,
  "tags": {
    "aerialway": "station",
    "aerialway:access": "both",
    "aerialway:summer:access": "both",
    "name": "Brévent"
  }
},
{
  "type": "node",
  "id": 30983814,
  "lat": 45.9334127,
  "lon": 6.8378727,
  "tags": {
    "aerialway": "station",
    "aerialway:access": "both",
    "aerialway:summer:access": "both",
    "name": "Brévent",
    "note": "Imagerie aérienne fortement décallée par rapport aux repères géodésiques et cadastre."
  }
},
{
  "type": "node",
  "id": 31000524,
  "lat": 45.9016501,
  "lon": 6.8848190,
  "tags": {
    "aerialway": "station",
    "aerialway:access": "both",
    "aerialway:summer:access": "both",
    "ele": "2317",
    "name": "Plan de l'Aiguille"
  }
},
{
  "type": "node",
  "id": 31000525,
  "lat": 45.9181544,
  "lon": 6.8701157,
  "tags": {
    "aerialway": "station",
    "aerialway:access": "both",
    "aerialway:summer:access": "both",
    "ele": "1035",
    "name": "Aiguille du Midi",
    "wheelchair": "yes"
  }
},
{
  "type": "node",
  "id": 31411252,
  "lat": 46.2914880,
  "lon": 5.9829883,
  "tags": {
    "aerialway": "station"
  }
},
{
  "type": "node",
  "id": 32846313,
  "lat": 47.1989940,
  "lon": 9.3422190,
  "tags": {
    "aerialway": "station",
    "ele": "1098",
    "name": "Wildhaus Thur (Talstation)",
    "operator": "BBWAG",
    "uic_name": "Wildhaus Thur (Talstation)",
    "uic_ref": "8530486"
  }
},
{
  "type": "node",
  "id": 32846509,
  "lat": 47.1898867,
  "lon": 9.3434338,
  "tags": {
    "aerialway": "station",
    "name": "Oberdorf (Gamsalp)",
    "uic_name": "Wildhaus Oberdorf (Gamsalp)",
    "uic_ref": "8531311"
  }
},
{
  "type": "node",
  "id": 32846510,
  "lat": 47.1726971,
  "lon": 9.3394605,
  "tags": {
    "aerialway": "station",
    "ele": "1761",
    "name": "Gamsalp (Oberdorf)",
    "operator": "BBWAG",
    "uic_name": "Gamsalp",
    "uic_ref": "8530488"
  }
},
{
  "type": "node",
  "id": 32846602,
  "lat": 47.1917012,
  "lon": 9.3459036,
  "tags": {
    "aerialway": "station",
    "created_by": "JOSM"
  }
},
{
  "type": "node",
  "id": 32846603,
  "lat": 47.1889058,
  "lon": 9.3489283,
  "tags": {
    "aerialway": "station"
  }
},
{
  "type": "node",
  "id": 32846623,
  "lat": 47.1735921,
  "lon": 9.3368181,
  "tags": {
    "aerialway": "station",
    "name": "Gamsalp (Gamserugg)",
    "public_transport": "station"
  }
},
{
  "type": "node",
  "id": 32846730,
  "lat": 47.1701169,
  "lon": 9.3203733,
  "tags": {
    "aerialway": "station",
    "name": "Ruggschopf"
  }
},
{
  "type": "node",
  "id": 32846732,
  "lat": 47.1550062,
  "lon": 9.3131683,
  "tags": {
    "aerialway": "station",
    "name": "Chäserugg (Ruggschopf)"
  }
},
{
  "type": "node",
  "id": 35331018,
  "lat": 49.2780104,
  "lon": 8.0862633,
  "tags": {
    "aerialway": "station",
    "public_transport": "station"
  }
},
{
  "type": "node",
  "id": 36581637,
  "lat": 47.3000022,
  "lon": 12.7884047,
  "tags": {
    "aerialway": "station",
    "name": "areitXpress",
    "public_transport": "station"
  }
},
{
  "type": "node",
  "id": 36581790,
  "lat": 47.3240176,
  "lon": 12.7362767,
  "tags": {
    "aerialway": "station",
    "name": "Areitbahn III",
    "public_transport": "station"
  }
},
{
  "type": "node",
  "id": 36592500,
  "lat": 47.3132207,
  "lon": 12.7591356,
  "tags": {
    "aerialway": "station",
    "name": "Glocknerbahn Bergstation",
    "public_transport": "station"
  }
},
{
  "type": "node",
  "id": 36592651,
  "lat": 47.3151282,
  "lon": 12.7715271,
  "tags": {
    "aerialway": "station",
    "public_transport": "station"
  }
},
{
  "type": "node",
  "id": 36592652,
  "lat": 47.3157572,
  "lon": 12.7508457,
  "tags": {
    "aerialway": "station",
    "public_transport": "station"
  }
},
{
  "type": "node",
  "id": 36593914,
  "lat": 47.3263696,
  "lon": 12.7723070,
  "tags": {
    "aerialway": "station"
  }
},
{
  "type": "node",
  "id": 36593915,
  "lat": 47.3288450,
  "lon": 12.7384498,
  "tags": {
    "aerialway": "station",
    "name": "Schmittenhöhebahn",
    "public_transport": "station"
  }
},
{
  "type": "node",
  "id": 36688301,
  "lat": 47.3358550,
  "lon": 12.7669278,
  "tags": {
    "aerialway": "station",
    "name": "Sonnenalmbahn",
    "public_transport": "station"
  }
},
{
  "type": "node",
  "id": 36745261,
  "lat": 47.4136170,
  "lon": 10.9800721,
  "tags": {
    "aerialway": "station",
    "building": "yes",
    "ele": "2576",
    "name": "Gletscherbahn Talstation",
    "operator": "Bayrische Zugspitzbahn",
    "wheelchair": "yes"
  }
},
{
  "type": "node",
  "id": 41154838,
  "lat": 47.2916227,
  "lon": 9.3278805,
  "tags": {
    "aerialway": "station",
    "ele": "1655",
    "name": "Kronberg Bergstation",
    "operator": "LJK",
    "uic_name": "Kronberg",
    "uic_ref": "8506265"
  }
},
{
  "type": "node",
  "id": 41154842,
  "lat": 47.3198528,
  "lon": 9.3283200,
  "tags": {
    "aerialway": "station",
    "name": "Jakobsbad Talstation"
  }
},
{
  "type": "node",
  "id": 46385343,
  "lat": 47.5886947,
  "lon": 13.4625382,
  "tags": {
    "aerialway": "station",
    "name": "Talstation Hornbahn",
    "wheelchair": "no"
  }
},
{
  "type": "node",
  "id": 46385350,
  "lat": 47.5686913,
  "lon": 13.4788023,
  "tags": {
    "aerialway": "station",
    "name": "Bergstation Hornbahn Russbach"
  }
},
{
  "type": "node",
  "id": 52624215,
  "lat": 46.1801742,
  "lon": 7.3865796,
  "tags": {
    "aerialway": "station",
    "ele": "1800",
    "name": "Trabanta"
  }
},
{
  "type": "node",
  "id": 52624345,
  "lat": 46.1775147,
  "lon": 7.3684050,
  "tags": {
    "aerialway": "station",
    "ele": "2200",
    "name": "Trabanta"
  }
},
{
  "type": "node",
  "id": 52624524,
  "lat": 46.1802261,
  "lon": 7.3661455,
  "tags": {
    "aerialway": "station",
    "name": "Thyon"
  }
},
{
  "type": "node",
  "id": 57476516,
  "lat": 46.9489516,
  "lon": 8.9941982,
  "tags": {
    "aerialway": "station",
    "name": "Grotzenbüel (Hüttenberg)",
    "uic_name": "Grotzenbüel (Hüttenberg)",
    "uic_ref": "8503268"
  }
},
{
  "type": "node",
  "id": 57476518,
  "lat": 46.9390598,
  "lon": 8.9908338,
  "tags": {
    "aerialway": "station",
    "ele": "1309",
    "name": "Talstation Hüttenberg",
    "operator": "BRSB",
    "uic_name": "Hüttenberg",
    "uic_ref": "8503645"
  }
},
{
  "type": "node",
  "id": 57722287,
  "lat": 46.3779180,
  "lon": 8.0331847,
  "tags": {
    "aerialway": "station",
    "ele": "1920",
    "name": "Riederalp-Mitte",
    "operator": "ARBAG",
    "public_transport": "station",
    "uic_name": "Riederalp Mitte",
    "uic_ref": "8501698"
  }
},
{
  "type": "node",
  "id": 57722291,
  "lat": 46.3566879,
  "lon": 8.0458775,
  "tags": {
    "aerialway": "station",
    "ele": "802",
    "name": "Mörel",
    "operator": "ABAG",
    "public_transport": "station",
    "uic_name": "Mörel ARBAG",
    "uic_ref": "8530237"
  }
},
{
  "type": "node",
  "id": 60194062,
  "lat": 47.3261089,
  "lon": 10.1558717,
  "tags": {
    "aerialway": "station",
    "ele": "1210",
    "name": "Zafernabahn",
    "wheelchair": "no"
  }
},
{
  "type": "node",
  "id": 60196637,
  "lat": 47.3291076,
  "lon": 10.1509252,
  "tags": {
    "aerialway": "station",
    "ele": "1420",
    "name": "Zafernabahn",
    "wheelchair": "no"
  }
},
{
  "type": "node",
  "id": 60280596,
  "lat": 46.3776645,
  "lon": 8.0269475,
  "tags": {
    "aerialway": "station",
    "aerialway:access": "both",
    "aerialway:summer:access": "both",
    "ele": "1943",
    "name": "Hohfluh",
    "operator": "ARBAG",
    "uic_name": "Riederalp ARBAG (Hohfluh)",
    "uic_ref": "8530240"
  }
},
{
  "type": "node",
  "id": 60280597,
  "lat": 46.3861232,
  "lon": 8.0278845,
  "tags": {
    "aerialway": "station",
    "aerialway:access": "both",
    "aerialway:summer:access": "both",
    "ele": "2229",
    "name": "Hohfluh",
    "operator": "ARBAG",
    "uic_name": "Hohfluh ARBAG",
    "uic_ref": "8530242"
  }
},
{
  "type": "node",
  "id": 60706441,
  "lat": 47.6273616,
  "lon": 14.3151663,
  "tags": {
    "aerialway": "station"
  }
},
{
  "type": "node",
  "id": 60707035,
  "lat": 47.6468639,
  "lon": 14.2749118,
  "tags": {
    "aerialway": "station"
  }
},
{
  "type": "node",
  "id": 60821441,
  "lat": 46.3565758,
  "lon": 8.0456424,
  "tags": {
    "aerialway": "station",
    "ele": "802",
    "name": "Mörel",
    "operator": "ABAG",
    "public_transport": "station",
    "uic_name": "Mörel ARBAG",
    "uic_ref": "8530237"
  }
},
{
  "type": "node",
  "id": 60821442,
  "lat": 46.3601985,
  "lon": 8.0347030,
  "tags": {
    "aerialway": "station",
    "ele": "1175",
    "name": "Ried-Mörel",
    "operator": "ABAG",
    "public_transport": "station",
    "uic_name": "Mörel (Greicheralp)",
    "uic_ref": "8530689"
  }
},
{
  "type": "node",
  "id": 60821443,
  "lat": 46.3759881,
  "lon": 8.0260622,
  "tags": {
    "aerialway": "station",
    "ele": "1914",
    "name": "Riederalp-West",
    "operator": "ABAG",
    "public_transport": "station",
    "uic_name": "Riederalp West",
    "uic_ref": "8530688"
  }
},
{
  "type": "node",
  "id": 60959435,
  "lat": 46.4439060,
  "lon": 11.5892576,
  "tags": {
    "aerialway": "station",
    "aerialway:access": "entry",
    "aerialway:summer:access": "both",
    "ele": "1721",
    "name": "König Laurin - Re Laurino",
    "name:de": "König Laurin",
    "name:it": "Re Laurino"
  }
},
{
  "type": "node",
  "id": 68515207,
  "lat": 47.3854985,
  "lon": 9.9206441,
  "tags": {
    "aerialway": "station",
    "name": "Seilbahn Bezau Talstation"
  }
},
{
  "type": "node",
  "id": 68515213,
  "lat": 47.3929659,
  "lon": 9.9296841,
  "tags": {
    "aerialway": "station",
    "name": "Seilbahn Bezau Mittelstation"
  }
},
{
  "type": "node",
  "id": 89237467,
  "lat": 46.3327570,
  "lon": 13.5382604,
  "tags": {
    "aerialway": "station",
    "aerialway:access": "both",
    "ele": "436",
    "name": "Postaja A - Dvor"
  }
},
{
  "type": "node",
  "id": 89237470,
  "lat": 46.3438052,
  "lon": 13.5084047,
  "tags": {
    "aerialway": "station",
    "aerialway:access": "both",
    "ele": "980",
    "name": "Postaja B - Čela"
  }
},
{
  "type": "node",
  "id": 89237473,
  "lat": 46.3515645,
  "lon": 13.4886044,
  "tags": {
    "aerialway": "station",
    "aerialway:access": "both",
    "ele": "1649",
    "name": "Postaja C - Skripi"
  }
},
{
  "type": "node",
  "id": 89237477,
  "lat": 46.3586626,
  "lon": 13.4767168,
  "tags": {
    "aerialway": "station",
    "aerialway:access": "exit",
    "ele": "2200"
  }
},
{
  "type": "node",
  "id": 89237482,
  "lat": 46.3540215,
  "lon": 13.4776746,
  "tags": {
    "aerialway": "station",
    "aerialway:access": "entry",
    "ele": "2070"
  }
},
{
  "type": "node",
  "id": 89237523,
  "lat": 46.3581471,
  "lon": 13.4749598,
  "tags": {
    "aerialway": "station",
    "aerialway:access": "exit",
    "ele": "2245"
  }
},
{
  "type": "node",
  "id": 89237526,
  "lat": 46.3612238,
  "lon": 13.4766205,
  "tags": {
    "aerialway": "station",
    "aerialway:access": "exit",
    "ele": "2292",
    "source": "PCN 2012"
  }
},
{
  "type": "node",
  "id": 89237528,
  "lat": 46.3671847,
  "lon": 13.4810843,
  "tags": {
    "aerialway": "station",
    "aerialway:access": "entry",
    "ele": "2064",
    "source": "PCN 2012"
  }
},
{
  "type": "node",
  "id": 89237531,
  "lat": 46.3559856,
  "lon": 13.4868020,
  "tags": {
    "aerialway": "station",
    "aerialway:access": "entry",
    "ele": "1867"
  }
},
{
  "type": "node",
  "id": 89237533,
  "lat": 46.3592802,
  "lon": 13.4756109,
  "tags": {
    "aerialway": "station",
    "aerialway:access": "exit",
    "ele": "2202"
  }
},
{
  "type": "node",
  "id": 94829726,
  "lat": 46.5246258,
  "lon": 10.5896053,
  "tags": {
    "aerialway": "station",
    "name": "Kanzel - Pulpito"
  }
},
{
  "type": "node",
  "id": 94829729,
  "lat": 46.4910856,
  "lon": 10.5986895,
  "tags": {
    "aerialway": "station",
    "name": "Solda",
    "name:de": "Sulden",
    "name:it": "Solda"
  }
},
{
  "type": "node",
  "id": 94829731,
  "lat": 46.5159891,
  "lon": 10.5959280,
  "tags": {
    "aerialway": "station",
    "name": "Sulden - Solda"
  }
},
{
  "type": "node",
  "id": 102561253,
  "lat": 46.5402157,
  "lon": 11.5637762,
  "tags": {
    "aerialway": "station",
    "name": "Seis - Siusi",
    "toilets:wheelchair": "no",
    "wheelchair": "yes"
  }
},
{
  "type": "node",
  "id": 102561714,
  "lat": 46.5423625,
  "lon": 11.6170037,
  "tags": {
    "aerialway": "station",
    "name": "Seiser Alm - Alpe di Siusi",
    "toilets:wheelchair": "yes",
    "wheelchair": "yes"
  }
},
{
  "type": "node",
  "id": 142516749,
  "lat": 47.2293884,
  "lon": 12.7270207,
  "tags": {
    "aerialway": "station",
    "ele": "929",
    "name": "Panoramabahn"
  }
},
{
  "type": "node",
  "id": 142516755,
  "lat": 47.2205508,
  "lon": 12.6992299,
  "tags": {
    "aerialway": "station",
    "ele": "1978",
    "name": "Panoramabahn"
  }
},
{
  "type": "node",
  "id": 142516784,
  "lat": 47.2035436,
  "lon": 12.6772185,
  "tags": {
    "aerialway": "station",
    "name": "Kristallbahn"
  }
},
{
  "type": "node",
  "id": 142516823,
  "lat": 47.1950340,
  "lon": 12.6833072,
  "tags": {
    "aerialway": "station",
    "name": "Schmiedingerbahn"
  }
},
{
  "type": "node",
  "id": 142516830,
  "lat": 47.1989901,
  "lon": 12.6824646,
  "tags": {
    "aerialway": "station",
    "name": "Sonnenkarbahn 2"
  }
},
{
  "type": "node",
  "id": 142518153,
  "lat": 47.2289765,
  "lon": 12.7259781,
  "tags": {
    "aerialway": "station",
    "ele": "911",
    "name": "Gletscherjet I",
    "wheelchair": "yes"
  }
},
{
  "type": "node",
  "id": 142518156,
  "lat": 47.2201715,
  "lon": 12.6997360,
  "tags": {
    "aerialway": "station",
    "ele": "1978",
    "name": "Gletscherjet I"
  }
},
{
  "type": "node",
  "id": 146194436,
  "lat": 47.2091658,
  "lon": 12.6895814,
  "tags": {
    "aerialway": "station",
    "ele": "2453",
    "name": "Gletscherjet II"
  }
},
{
  "type": "node",
  "id": 146204073,
  "lat": 47.2541594,
  "lon": 12.7121255,
  "tags": {
    "aerialway": "station",
    "aerialway:access": "exit",
    "ele": "1730",
    "name": "Almbahn Kaprun"
  }
},
{
  "type": "node",
  "id": 147866897,
  "lat": 46.7932413,
  "lon": 8.3986726,
  "tags": {
    "aerialway": "station",
    "aerialway:access": "exit",
    "description": "Exit for travelers from Trübsee",
    "ele": "1802",
    "name": "Trübsee Hopper",
    "operator": "BET",
    "uic_name": "Trübsee",
    "uic_ref": "8508366"
  }
},
{
  "type": "node",
  "id": 147866942,
  "lat": 46.7902821,
  "lon": 8.3891913,
  "tags": {
    "aerialway": "station",
    "aerialway:access": "both",
    "ele": "1802",
    "name": "Trübsee-Hopper",
    "operator": "BET",
    "uic_name": "Trübsee (Jochpass)",
    "uic_ref": "8530371"
  }
},
{
  "type": "node",
  "id": 147866973,
  "lat": 46.7774513,
  "lon": 8.3853531,
  "tags": {
    "aerialway": "station",
    "ele": "2183",
    "name": "Jochpass (Jochstock)",
    "operator": "BET",
    "uic_name": "Jochpass (Jochstock)",
    "uic_ref": "8530982"
  }
},
{
  "type": "node",
  "id": 147866978,
  "lat": 46.7724708,
  "lon": 8.3948078,
  "tags": {
    "aerialway": "station",
    "ele": "2506",
    "name": "Jochstock (Jochstock-Xpress)",
    "operator": "BET",
    "source": "opentransportdata.swiss",
    "uic_name": "Jochstock",
    "uic_ref": "8531022"
  }
},
{
  "type": "node",
  "id": 147866988,
  "lat": 46.7766348,
  "lon": 8.4272083,
  "tags": {
    "aerialway": "station",
    "ele": "2855",
    "name": "Rotstöckli",
    "operator": "BET",
    "uic_name": "Rotstöckli",
    "uic_ref": "8531019"
  }
},
{
  "type": "node",
  "id": 147867020,
  "lat": 46.7825419,
  "lon": 8.4174627,
  "tags": {
    "aerialway": "station",
    "ele": "2428",
    "name": "Stand (Titlis/Rotair)",
    "operator": "BET",
    "uic_name": "Stand",
    "uic_ref": "8508494"
  }
},
{
  "type": "node",
  "id": 147867030,
  "lat": 46.7706571,
  "lon": 8.4230359,
  "tags": {
    "aerialway": "station",
    "ele": "3020",
    "name": "Titlis",
    "operator": "BET",
    "uic_name": "Titlis",
    "uic_ref": "8508493"
  }
},
{
  "type": "node",
  "id": 150548463,
  "lat": 45.5942533,
  "lon": 6.8644786,
  "tags": {
    "aerialway": "station",
    "aerialway:access": "entry",
    "name": "Replat"
  }
},
{
  "type": "node",
  "id": 150548464,
  "lat": 45.5915836,
  "lon": 6.8596915,
  "tags": {
    "aerialway": "station",
    "aerialway:access": "exit",
    "name": "Replat"
  }
},
{
  "type": "node",
  "id": 150548465,
  "lat": 45.5837570,
  "lon": 6.8426857,
  "tags": {
    "aerialway": "station",
    "aerialway:access": "entry",
    "name": "Droset"
  }
},
{
  "type": "node",
  "id": 150549715,
  "lat": 45.5697805,
  "lon": 6.8286368,
  "tags": {
    "aerialway": "station",
    "aerialway:access": "entry",
    "name": "Saint-Jacques"
  }
},
{
  "type": "node",
  "id": 150549716,
  "lat": 45.5635874,
  "lon": 6.8313452,
  "tags": {
    "aerialway": "station",
    "aerialway:access": "exit",
    "name": "Saint-Jacques"
  }
},
{
  "type": "node",
  "id": 150549717,
  "lat": 45.5694965,
  "lon": 6.8280730,
  "tags": {
    "aerialway": "station",
    "aerialway:access": "both",
    "name": "Varet"
  }
},
{
  "type": "node",
  "id": 150549719,
  "lat": 45.5549395,
  "lon": 6.8358374,
  "tags": {
    "aerialway": "station",
    "aerialway:access": "both",
    "name": "Varet"
  }
},
{
  "type": "node",
  "id": 150549722,
  "lat": 45.5723530,
  "lon": 6.8114352,
  "tags": {
    "aerialway": "station",
    "aerialway:access": "exit",
    "name": "Arpette"
  }
},
{
  "type": "node",
  "id": 150549723,
  "lat": 45.5746673,
  "lon": 6.7959806,
  "tags": {
    "aerialway": "station",
    "aerialway:access": "entry",
    "name": "Arpette"
  }
},
{
  "type": "node",
  "id": 150549727,
  "lat": 45.5733563,
  "lon": 6.7794341,
  "tags": {
    "aerialway": "station",
    "aerialway:access": "entry",
    "name": "Vagère"
  }
},
{
  "type": "node",
  "id": 150549728,
  "lat": 45.5680642,
  "lon": 6.8044240,
  "tags": {
    "aerialway": "station",
    "aerialway:access": "exit",
    "name": "Vagère"
  }
},
{
  "type": "node",
  "id": 150549731,
  "lat": 45.5572647,
  "lon": 6.7799799,
  "tags": {
    "aerialway": "station",
    "aerialway:access": "entry",
    "name": "Derby"
  }
},
{
  "type": "node",
  "id": 150549732,
  "lat": 45.5561863,
  "lon": 6.7982104,
  "tags": {
    "aerialway": "station",
    "aerialway:access": "exit",
    "name": "Derby"
  }
},
{
  "type": "node",
  "id": 150549733,
  "lat": 45.5564883,
  "lon": 6.7628189,
  "tags": {
    "aerialway": "station",
    "aerialway:access": "entry",
    "name": "Vallandry"
  }
},
{
  "type": "node",
  "id": 150549734,
  "lat": 45.5507777,
  "lon": 6.7877545,
  "tags": {
    "aerialway": "station",
    "aerialway:access": "exit",
    "name": "Vallandry"
  }
},
{
  "type": "node",
  "id": 150549735,
  "lat": 45.5507233,
  "lon": 6.7634920,
  "tags": {
    "aerialway": "station",
    "aerialway:access": "both",
    "name": "Peisey"
  }
},
{
  "type": "node",
  "id": 150549736,
  "lat": 45.5476296,
  "lon": 6.7833812,
  "tags": {
    "aerialway": "station",
    "aerialway:access": "exit",
    "name": "Peisey"
  }
},
{
  "type": "node",
  "id": 150549737,
  "lat": 45.5478511,
  "lon": 6.8251235,
  "tags": {
    "aerialway": "station",
    "aerialway:access": "entry",
    "name": "Grand Col"
  }
},
{
  "type": "node",
  "id": 150549738,
  "lat": 45.5433621,
  "lon": 6.8413051,
  "tags": {
    "aerialway": "station",
    "aerialway:access": "exit",
    "name": "Grand Col"
  }
},
{
  "type": "node",
  "id": 150549739,
  "lat": 45.5715230,
  "lon": 6.7790765,
  "tags": {
    "aerialway": "station",
    "aerialway:access": "both",
    "name": "Transarc"
  }
},
{
  "type": "node",
  "id": 150549741,
  "lat": 45.5629174,
  "lon": 6.7945824,
  "tags": {
    "aerialway": "station",
    "aerialway:access": "both",
    "name": "Transarc"
  }
},
{
  "type": "node",
  "id": 150549742,
  "lat": 45.5508059,
  "lon": 6.8102214,
  "tags": {
    "aerialway": "station",
    "aerialway:access": "both",
    "name": "Transarc"
  }
},
{
  "type": "node",
  "id": 150553244,
  "lat": 45.5544570,
  "lon": 6.8362138,
  "tags": {
    "aerialway": "station",
    "aerialway:access": "both",
    "name": "Aiguille Rouge"
  }
},
{
  "type": "node",
  "id": 150553245,
  "lat": 45.5516603,
  "lon": 6.8474821,
  "tags": {
    "aerialway": "station",
    "aerialway:access": "both",
    "name": "Aiguille Rouge"
  }
},
{
  "type": "node",
  "id": 150554276,
  "lat": 45.5730687,
  "lon": 6.8242787,
  "tags": {
    "aerialway": "station",
    "aerialway:access": "entry",
    "name": "Bois de L'ours"
  }
},
{
  "type": "node",
  "id": 150554277,
  "lat": 45.5719156,
  "lon": 6.8119735,
  "tags": {
    "aerialway": "station",
    "aerialway:access": "exit",
    "name": "Bois de l'Ours"
  }
},
{
  "type": "node",
  "id": 150554279,
  "lat": 45.5510011,
  "lon": 6.8107690,
  "tags": {
    "aerialway": "station",
    "aerialway:access": "exit",
    "name": "Arcabulle"
  }
},
{
  "type": "node",
  "id": 150557482,
  "lat": 45.5932983,
  "lon": 6.8571911,
  "tags": {
    "aerialway": "station",
    "aerialway:access": "entry",
    "name": "Plan des Violettes"
  }
},
{
  "type": "node",
  "id": 150557483,
  "lat": 45.5840890,
  "lon": 6.8431735,
  "tags": {
    "aerialway": "station",
    "aerialway:access": "exit",
    "name": "Plan des Violettes"
  }
},
{
  "type": "node",
  "id": 150558623,
  "lat": 45.5963216,
  "lon": 6.7947175,
  "tags": {
    "aerialway": "station",
    "aerialway:access": "entry",
    "name": "Mont-Blanc"
  }
},
{
  "type": "node",
  "id": 150558624,
  "lat": 45.5868118,
  "lon": 6.8103839,
  "tags": {
    "aerialway": "station",
    "aerialway:access": "exit",
    "name": "Mont-Blanc"
  }
},
{
  "type": "node",
  "id": 150558625,
  "lat": 45.5960436,
  "lon": 6.7940272,
  "tags": {
    "aerialway": "station",
    "aerialway:access": "entry",
    "name": "Cachette"
  }
},
{
  "type": "node",
  "id": 150558626,
  "lat": 45.5829880,
  "lon": 6.8057576,
  "tags": {
    "aerialway": "station",
    "aerialway:access": "exit",
    "name": "Cachette"
  }
},
{
  "type": "node",
  "id": 150559260,
  "lat": 45.5826126,
  "lon": 6.8332123,
  "tags": {
    "aerialway": "station",
    "aerialway:access": "entry",
    "name": "Comborcière",
    "ref": "41"
  }
},
{
  "type": "node",
  "id": 187321169,
  "lat": 45.2037333,
  "lon": 6.2199703,
  "tags": {
    "aerialway": "station",
    "name": "Blanchards"
  }
},
{
  "type": "node",
  "id": 187321182,
  "lat": 45.2046863,
  "lon": 6.2074786,
  "tags": {
    "aerialway": "station",
    "name": "Blanchards"
  }
},
{
  "type": "node",
  "id": 187345831,
  "lat": 45.2198732,
  "lon": 6.2271435,
  "tags": {
    "aerialway": "station",
    "name": "Choseaux"
  }
},
{
  "type": "node",
  "id": 187345839,
  "lat": 45.2178709,
  "lon": 6.2036815,
  "tags": {
    "aerialway": "station",
    "name": "Choseaux"
  }
},
{
  "type": "node",
  "id": 187345844,
  "lat": 45.2146724,
  "lon": 6.2046042,
  "tags": {
    "aerialway": "station",
    "name": "Rouet"
  }
},
{
  "type": "node",
  "id": 187345849,
  "lat": 45.2090013,
  "lon": 6.1824608,
  "tags": {
    "aerialway": "station",
    "name": "3 Lacs"
  }
},
{
  "type": "node",
  "id": 187345860,
  "lat": 45.2307048,
  "lon": 6.1948048,
  "tags": {
    "aerialway": "station",
    "name": "Eau d'Olle"
  }
},
{
  "type": "node",
  "id": 189117115,
  "lat": 45.2816447,
  "lon": 6.2305753,
  "tags": {
    "aerialway": "station",
    "name": "Charmettes"
  }
},
{
  "type": "node",
  "id": 189117128,
  "lat": 45.2734365,
  "lon": 6.2287535,
  "tags": {
    "aerialway": "station",
    "name": "Charmettes"
  }
},
{
  "type": "node",
  "id": 189117136,
  "lat": 45.2843708,
  "lon": 6.2240716,
  "tags": {
    "aerialway": "station"
  }
},
{
  "type": "node",
  "id": 189117154,
  "lat": 45.2774713,
  "lon": 6.2209786,
  "tags": {
    "aerialway": "station"
  }
},
{
  "type": "node",
  "id": 189139929,
  "lat": 45.2928069,
  "lon": 6.2316739,
  "tags": {
    "aerialway": "station",
    "name": "Ormet"
  }
},
{
  "type": "node",
  "id": 189139969,
  "lat": 45.2844816,
  "lon": 6.2231143,
  "tags": {
    "aerialway": "station",
    "name": "Ormet"
  }
},
{
  "type": "node",
  "id": 189151584,
  "lat": 45.2535659,
  "lon": 6.2132918,
  "tags": {
    "aerialway": "station",
    "name": "Bellard"
  }
},
{
  "type": "node",
  "id": 189151598,
  "lat": 45.2463931,
  "lon": 6.2107678,
  "tags": {
    "aerialway": "station",
    "name": "Bellard"
  }
},
{
  "type": "node",
  "id": 189151615,
  "lat": 45.2308355,
  "lon": 6.1944246,
  "tags": {
    "aerialway": "station",
    "name": "Petit Perron"
  }
},
{
  "type": "node",
  "id": 189151639,
  "lat": 45.2228349,
  "lon": 6.1948950,
  "tags": {
    "aerialway": "station",
    "name": "Petit Perron"
  }
},
{
  "type": "node",
  "id": 189151644,
  "lat": 45.2050633,
  "lon": 6.2026844,
  "tags": {
    "aerialway": "station",
    "name": "Chalets de la Balme"
  }
},
{
  "type": "node",
  "id": 189151649,
  "lat": 45.2047256,
  "lon": 6.2071999,
  "tags": {
    "aerialway": "station",
    "name": "Chalets de la Balme"
  }
},
{
  "type": "node",
  "id": 190623681,
  "lat": 45.2588056,
  "lon": 6.2529175,
  "tags": {
    "aerialway": "station"
  }
},
{
  "type": "node",
  "id": 190632684,
  "lat": 45.2624357,
  "lon": 6.2508172,
  "tags": {
    "aerialway": "station"
  }
},
{
  "type": "node",
  "id": 190632749,
  "lat": 45.2663839,
  "lon": 6.2434099,
  "tags": {
    "aerialway": "station"
  }
},
{
  "type": "node",
  "id": 190632784,
  "lat": 45.2557162,
  "lon": 6.2558353,
  "tags": {
    "aerialway": "station",
    "name": "Médaille d'Or"
  }
},
{
  "type": "node",
  "id": 190632809,
  "lat": 45.2541555,
  "lon": 6.2408895,
  "tags": {
    "aerialway": "station",
    "name": "Médaille d'Or"
  }
},
{
  "type": "node",
  "id": 190632829,
  "lat": 45.2542234,
  "lon": 6.2397697,
  "tags": {
    "aerialway": "station",
    "name": "Pierre du Turc"
  }
},
{
  "type": "node",
  "id": 190632852,
  "lat": 45.2502885,
  "lon": 6.2235055,
  "tags": {
    "aerialway": "station",
    "name": "Pierre du Turc"
  }
},
{
  "type": "node",
  "id": 190636321,
  "lat": 45.2621364,
  "lon": 6.2653823,
  "tags": {
    "aerialway": "station",
    "name": "Grand Truc"
  }
},
{
  "type": "node",
  "id": 190636348,
  "lat": 45.2736003,
  "lon": 6.2575635,
  "tags": {
    "aerialway": "station",
    "name": "Grand Truc"
  }
},
{
  "type": "node",
  "id": 190985461,
  "lat": 46.4495032,
  "lon": 7.5651257,
  "tags": {
    "aerialway": "station",
    "ele": "1973",
    "name": "Engstligenalp",
    "operator": "BEAG",
    "uic_name": "Engstligenalp",
    "uic_ref": "8530313"
  }
},
{
  "type": "node",
  "id": 194552850,
  "lat": 47.5101594,
  "lon": 10.0199853,
  "tags": {
    "aerialway": "station",
    "ele": "1217",
    "wheelchair": "yes"
  }
},
{
  "type": "node",
  "id": 194552951,
  "lat": 47.5180207,
  "lon": 10.0075580,
  "tags": {
    "aerialway": "station"
  }
},
{
  "type": "node",
  "id": 194552956,
  "lat": 47.5072809,
  "lon": 10.0065970,
  "tags": {
    "aerialway": "station"
  }
},
{
  "type": "node",
  "id": 197233976,
  "lat": 47.6614323,
  "lon": 11.7937762,
  "tags": {
    "aerialway": "station",
    "ele": "1624",
    "name": "Wallbergbahn Bergstation",
    "source:ele": "guidepost"
  }
},
{
  "type": "node",
  "id": 197375792,
  "lat": 47.4968608,
  "lon": 12.1983007,
  "tags": {
    "aerialway": "station",
    "ele": "733",
    "name": "Bergbahn Hochsöll"
  }
},
{
  "type": "node",
  "id": 197907883,
  "lat": 46.3042921,
  "lon": 5.9437259,
  "tags": {
    "aerialway": "station"
  }
},
{
  "type": "node",
  "id": 197907888,
  "lat": 46.2938777,
  "lon": 5.9609017,
  "tags": {
    "aerialway": "station"
  }
},
{
  "type": "node",
  "id": 197907893,
  "lat": 46.2934125,
  "lon": 5.9605455,
  "tags": {
    "aerialway": "station"
  }
},
{
  "type": "node",
  "id": 197907898,
  "lat": 46.2873880,
  "lon": 5.9622930,
  "tags": {
    "aerialway": "station",
    "source": "Orthophotos 2012 du SITG (Système d'Information du Territoire Genevois)"
  }
},
{
  "type": "node",
  "id": 198070364,
  "lat": 46.2872465,
  "lon": 5.9617002,
  "tags": {
    "aerialway": "station",
    "aerialway:access": "exit"
  }
},
{
  "type": "node",
  "id": 199645114,
  "lat": 47.0629571,
  "lon": 14.3295231,
  "tags": {
    "aerialway": "station"
  }
},
{
  "type": "node",
  "id": 199647792,
  "lat": 47.0725720,
  "lon": 14.3107341,
  "tags": {
    "aerialway": "station",
    "name": "6 - Grebenzenbahn"
  }
},
{
  "type": "node",
  "id": 199647873,
  "lat": 47.0644681,
  "lon": 14.3210362,
  "tags": {
    "aerialway": "station",
    "name": "4 - Starnberglift 1"
  }
},
{
  "type": "node",
  "id": 199648436,
  "lat": 47.0347776,
  "lon": 14.3334081,
  "tags": {
    "aerialway": "station"
  }
},
{
  "type": "node",
  "id": 199648437,
  "lat": 47.0393120,
  "lon": 14.3315092,
  "tags": {
    "aerialway": "station"
  }
},
{
  "type": "node",
  "id": 199648539,
  "lat": 47.0515794,
  "lon": 14.3327745,
  "tags": {
    "aerialway": "station"
  }
},
{
  "type": "node",
  "id": 200613984,
  "lat": 47.0727816,
  "lon": 14.3107847,
  "tags": {
    "aerialway": "station",
    "name": "Sonnenlift"
  }
},
{
  "type": "node",
  "id": 200613985,
  "lat": 47.0720866,
  "lon": 14.3147600,
  "tags": {
    "aerialway": "station",
    "name": "Sonnenlift"
  }
},
{
  "type": "node",
  "id": 205016487,
  "lat": 45.7688516,
  "lon": 10.8315603,
  "tags": {
    "aerialway": "station",
    "ele": "563",
    "name": "San Michele",
    "wheelchair": "yes"
  }
},
{
  "type": "node",
  "id": 205016493,
  "lat": 45.7662047,
  "lon": 10.8133899,
  "tags": {
    "aerialway": "station",
    "name": "Funivia Monte Baldo",
    "website": "http://www.funiviedelbaldo.it",
    "wheelchair": "yes"
  }
},
{
  "type": "node",
  "id": 205155084,
  "lat": 45.2371317,
  "lon": 6.2728556,
  "tags": {
    "aerialway": "station",
    "name": "Grand Crozat"
  }
},
{
  "type": "node",
  "id": 205172842,
  "lat": 45.2176308,
  "lon": 6.2296276,
  "tags": {
    "aerialway": "station",
    "name": "Moulin Express"
  }
},
{
  "type": "node",
  "id": 205172908,
  "lat": 45.1998111,
  "lon": 6.2191604,
  "tags": {
    "aerialway": "station"
  }
},
{
  "type": "node",
  "id": 205172912,
  "lat": 45.2010074,
  "lon": 6.2066854,
  "tags": {
    "aerialway": "station"
  }
},
{
  "type": "node",
  "id": 205188567,
  "lat": 45.2466629,
  "lon": 6.2241896,
  "tags": {
    "aerialway": "station"
  }
},
{
  "type": "node",
  "id": 205188573,
  "lat": 45.2558951,
  "lon": 6.2557965,
  "tags": {
    "aerialway": "station",
    "name": "Ravières"
  }
},
{
  "type": "node",
  "id": 205188581,
  "lat": 45.2566923,
  "lon": 6.2527909,
  "tags": {
    "aerialway": "station",
    "name": "Tête de Bellard"
  }
},
{
  "type": "node",
  "id": 205188601,
  "lat": 45.2571134,
  "lon": 6.2665240,
  "tags": {
    "aerialway": "station",
    "name": "Soleil"
  }
},
{
  "type": "node",
  "id": 205188606,
  "lat": 45.2643600,
  "lon": 6.2504829,
  "tags": {
    "aerialway": "station",
    "name": "Soleil"
  }
},
{
  "type": "node",
  "id": 205404181,
  "lat": 46.8242455,
  "lon": 10.2690907,
  "tags": {
    "aerialway": "station",
    "name": "Jonvrai"
  }
},
{
  "type": "node",
  "id": 205404182,
  "lat": 46.8264298,
  "lon": 10.2531821,
  "tags": {
    "aerialway": "station",
    "ele": "2579",
    "name": "Mot da Ri",
    "uic_name": "Mot da Ri",
    "uic_ref": "8531184"
  }
},
{
  "type": "node",
  "id": 205404183,
  "lat": 46.8347764,
  "lon": 10.2571675,
  "tags": {
    "aerialway": "station",
    "name": "Champatsch 1"
  }
},
{
  "type": "node",
  "id": 205404184,
  "lat": 46.8434862,
  "lon": 10.2688478,
  "tags": {
    "aerialway": "station",
    "name": "Champatsch 1"
  }
},
{
  "type": "node",
  "id": 205404185,
  "lat": 46.8348306,
  "lon": 10.2573667,
  "tags": {
    "aerialway": "station",
    "name": "Champatsch 2"
  }
},
{
  "type": "node",
  "id": 206171346,
  "lat": 46.2638634,
  "lon": 13.8408987,
  "tags": {
    "aerialway": "station"
  }
},
{
  "type": "node",
  "id": 206171353,
  "lat": 46.2415785,
  "lon": 13.8368138,
  "tags": {
    "aerialway": "station"
  }
},
{
  "type": "node",
  "id": 206171354,
  "lat": 46.2508042,
  "lon": 13.8365269,
  "tags": {
    "aerialway": "station"
  }
},
{
  "type": "node",
  "id": 206171356,
  "lat": 46.2511345,
  "lon": 13.8376733,
  "tags": {
    "aerialway": "station"
  }
},
{
  "type": "node",
  "id": 206171358,
  "lat": 46.2515941,
  "lon": 13.8372157,
  "tags": {
    "aerialway": "station"
  }
},
{
  "type": "node",
  "id": 206171372,
  "lat": 46.2632577,
  "lon": 13.8395440,
  "tags": {
    "aerialway": "station"
  }
},
{
  "type": "node",
  "id": 206171377,
  "lat": 46.2617278,
  "lon": 13.8396662,
  "tags": {
    "aerialway": "station"
  }
},
{
  "type": "node",
  "id": 206171380,
  "lat": 46.2537589,
  "lon": 13.8235641,
  "tags": {
    "aerialway": "station"
  }
},
{
  "type": "node",
  "id": 206361628,
  "lat": 47.6810295,
  "lon": 12.0433729,
  "tags": {
    "aerialway": "station",
    "name": "Waldkopf-Talstation"
  }
},
{
  "type": "node",
  "id": 206361629,
  "lat": 47.6752600,
  "lon": 12.0415690,
  "tags": {
    "aerialway": "station",
    "name": "Waldkopf-Bergstation"
  }
},
{
  "type": "node",
  "id": 206368270,
  "lat": 46.8584959,
  "lon": 12.8112854,
  "tags": {
    "aerialway": "station",
    "name": "Faschingalmbahn"
  }
},
{
  "type": "node",
  "id": 206390663,
  "lat": 46.8017757,
  "lon": 8.4492410,
  "tags": {
    "aerialway": "station",
    "ele": "1002",
    "name": "Engelberg (Fürenalp Bahn)",
    "operator": "KIEF",
    "uic_name": "Engelberg (Fürenalp Bahn)",
    "uic_ref": "8530368"
  }
},
{
  "type": "node",
  "id": 207441563,
  "lat": 46.8264985,
  "lon": 12.7407530,
  "tags": {
    "aerialway": "station",
    "name": "Hochstein 2"
  }
},
{
  "type": "node",
  "id": 207441568,
  "lat": 46.8176485,
  "lon": 12.7272583,
  "tags": {
    "aerialway": "station",
    "name": "Hochstein 2"
  }
},
{
  "type": "node",
  "id": 207441585,
  "lat": 46.8269130,
  "lon": 12.7416395,
  "tags": {
    "aerialway": "station",
    "name": "Schlossbergbahn",
    "operator": "Lienzer Bergbahnen",
    "toilets:wheelchair": "no",
    "wheelchair": "yes"
  }
},
{
  "type": "node",
  "id": 208762735,
  "lat": 46.7958468,
  "lon": 9.4017728,
  "tags": {
    "aerialway": "station",
    "ele": "658",
    "name": "Rhäzüns",
    "operator": "LRF",
    "uic_name": "Rhäzüns LRF",
    "uic_ref": "8509679"
  }
},
{
  "type": "node",
  "id": 211050531,
  "lat": 46.8618718,
  "lon": 9.8581621,
  "tags": {
    "aerialway": "station",
    "aerialway:access": "both",
    "aerialway:summer:access": "both",
    "ele": "1787",
    "name": "Gotschnaboden (Gotschnagrat)",
    "operator": "DKB-lkp",
    "uic_name": "Gotschnaboden (Gotschnagrat)",
    "uic_ref": "8530885"
  }
},
{
  "type": "node",
  "id": 211050541,
  "lat": 46.8590140,
  "lon": 9.8478290,
  "tags": {
    "aerialway": "station",
    "aerialway:access": "both",
    "aerialway:summer:access": "both",
    "ele": "2293",
    "name": "Gotschnagrat (Klosters)",
    "operator": "DKB-lkp",
    "public_transport": "station",
    "uic_name": "Gotschnagrat (Klosters)",
    "uic_ref": "8509082"
  }
},
{
  "type": "node",
  "id": 211050550,
  "lat": 46.8485349,
  "lon": 9.8357708,
  "tags": {
    "aerialway": "station",
    "ele": "2070",
    "name": "Gruobenalp",
    "public_transport": "station",
    "uic_name": "Gruobenalp",
    "uic_ref": "8531084"
  }
},
{
  "type": "node",
  "id": 211050580,
  "lat": 46.8336725,
  "lon": 9.8063978,
  "tags": {
    "aerialway": "station",
    "ele": "2663",
    "name": "Weissfluhjoch (Totalp)",
    "public_transport": "station",
    "uic_name": "Weissfluhjoch (Totalp)",
    "uic_ref": "8531011"
  }
},
{
  "type": "node",
  "id": 211050586,
  "lat": 46.8334150,
  "lon": 9.8050090,
  "tags": {
    "aerialway": "station",
    "ele": "2663",
    "name": "Weissfluhjoch (Weissfluhgipf.)",
    "operator": "DKB-dpb",
    "public_transport": "station",
    "uic_name": "Weissfluhjoch (Weissfluhgipf.)",
    "uic_ref": "8530539",
    "wheelchair": "limited"
  }
},
{
  "type": "node",
  "id": 211050593,
  "lat": 46.8342937,
  "lon": 9.7962240,
  "tags": {
    "aerialway": "station",
    "ele": "2844",
    "name": "Weissfluhgipfel",
    "operator": "DKB-dpb",
    "public_transport": "station",
    "uic_name": "Weissfluhgipfel",
    "uic_ref": "8509087"
  }
},
{
  "type": "node",
  "id": 211050598,
  "lat": 46.8800952,
  "lon": 9.8134467,
  "tags": {
    "aerialway": "station",
    "ele": "1567",
    "name": "Schifer",
    "operator": "LSWJ",
    "public_transport": "station",
    "uic_name": "Schifer",
    "uic_ref": "8530537"
  }
},
{
  "type": "node",
  "id": 211050612,
  "lat": 46.8651719,
  "lon": 9.8091996,
  "tags": {
    "aerialway": "station",
    "ele": "2016",
    "name": "Obersäss",
    "operator": "LSWJ",
    "public_transport": "station",
    "uic_name": "Obersäss",
    "uic_ref": "8530538"
  }
},
{
  "type": "node",
  "id": 211050622,
  "lat": 46.8335310,
  "lon": 9.8054550,
  "tags": {
    "aerialway": "station",
    "ele": "2666",
    "name": "Weissfluhjoch (Obersäss)",
    "operator": "DKB-dpb",
    "public_transport": "station",
    "uic_name": "Weissfluhjoch (Obersäss)",
    "uic_ref": "8531009",
    "wheelchair": "yes"
  }
},
{
  "type": "node",
  "id": 211113456,
  "lat": 46.5291011,
  "lon": 7.6064663,
  "tags": {
    "aerialway": "station",
    "ele": "1302",
    "name": "Elsigbach",
    "operator": "LEE",
    "uic_name": "Elsigbach LEE",
    "uic_ref": "8530304"
  }
},
{
  "type": "node",
  "id": 211113461,
  "lat": 46.5225502,
  "lon": 7.6224859,
  "tags": {
    "aerialway": "station",
    "ele": "1802",
    "name": "Elsigenalp",
    "operator": "LEE",
    "uic_name": "Elsigenalp",
    "uic_ref": "8530305"
  }
},
{
  "type": "node",
  "id": 212565609,
  "lat": 46.8108869,
  "lon": 10.2735280,
  "tags": {
    "aerialway": "station",
    "name": "Naluns"
  }
},
{
  "type": "node",
  "id": 212565610,
  "lat": 46.8192631,
  "lon": 10.2589184,
  "tags": {
    "aerialway": "station",
    "ele": "2414",
    "name": "Schlivera",
    "uic_name": "Schlivera",
    "uic_ref": "8531186"
  }
},
{
  "type": "node",
  "id": 212566196,
  "lat": 46.8228661,
  "lon": 10.2694720,
  "tags": {
    "aerialway": "station",
    "name": "Jonvrai"
  }
},
{
  "type": "node",
  "id": 212566197,
  "lat": 46.8195705,
  "lon": 10.2548103,
  "tags": {
    "aerialway": "station",
    "ele": "2484",
    "name": "Clünas",
    "uic_name": "Clünas",
    "uic_ref": "8531185"
  }
},
{
  "type": "node",
  "id": 212569231,
  "lat": 46.7957131,
  "lon": 10.2884181,
  "tags": {
    "aerialway": "station",
    "name": "Rachögna"
  }
},
{
  "type": "node",
  "id": 212569232,
  "lat": 46.7993914,
  "lon": 10.2843183,
  "tags": {
    "aerialway": "station",
    "name": "Rachögna"
  }
},
{
  "type": "node",
  "id": 215798967,
  "lat": 46.2582874,
  "lon": 7.9044147,
  "tags": {
    "aerialway": "station",
    "ele": "1340",
    "name": "Visperterminen (Talstation)",
    "operator": "SVG",
    "uic_name": "Visperterminen (Talstation)",
    "uic_ref": "8530194"
  }
},
{
  "type": "node",
  "id": 215798969,
  "lat": 46.2555683,
  "lon": 7.9230284,
  "tags": {
    "aerialway": "station",
    "ele": "1962",
    "name": "Giw",
    "operator": "SVG",
    "uic_name": "Giw",
    "uic_ref": "8530195"
  }
},
{
  "type": "node",
  "id": 218582733,
  "lat": 47.4653253,
  "lon": 12.2040980,
  "tags": {
    "aerialway": "station",
    "ele": "1829",
    "name": "Bergbahn Hohe Salve"
  }
},
{
  "type": "node",
  "id": 218582746,
  "lat": 47.4737037,
  "lon": 12.2187445,
  "tags": {
    "aerialway": "station",
    "ele": "1190",
    "name": "Siller-Keat"
  }
},
{
  "type": "node",
  "id": 218582751,
  "lat": 47.4692418,
  "lon": 12.2096882,
  "tags": {
    "aerialway": "station",
    "ele": "1500",
    "name": "Siller-Keat",
    "public_transport": "station"
  }
},
{
  "type": "node",
  "id": 218582764,
  "lat": 47.4765200,
  "lon": 12.2418129,
  "tags": {
    "aerialway": "station",
    "ele": "1675",
    "internet_access": "yes",
    "name": "Zinsbergbahn",
    "public_transport": "station",
    "ref": "3"
  }
},
{
  "type": "node",
  "id": 218582774,
  "lat": 47.4768654,
  "lon": 12.2409823,
  "tags": {
    "aerialway": "station",
    "ele": "1681",
    "name": "Filzbodenbahn",
    "public_transport": "station"
  }
},
{
  "type": "node",
  "id": 218584867,
  "lat": 47.4607426,
  "lon": 12.2265688,
  "tags": {
    "aerialway": "station",
    "ele": "1272",
    "name": "Kälbersalvenbahn"
  }
},
{
  "type": "node",
  "id": 218584875,
  "lat": 47.4621351,
  "lon": 12.2075817,
  "tags": {
    "aerialway": "station",
    "name": "Kälbersalvenbahn"
  }
},
{
  "type": "node",
  "id": 218588865,
  "lat": 47.4848671,
  "lon": 12.2403270,
  "tags": {
    "aerialway": "station",
    "ele": "1388",
    "name": "Aualm"
  }
},
{
  "type": "node",
  "id": 218588873,
  "lat": 47.4773118,
  "lon": 12.2553090,
  "tags": {
    "aerialway": "station",
    "ele": "1540",
    "name": "Muldenbahn"
  }
},
{
  "type": "node",
  "id": 218588876,
  "lat": 47.4771245,
  "lon": 12.2495589,
  "tags": {
    "aerialway": "station",
    "ele": "1674",
    "name": "Muldenbahn"
  }
},
{
  "type": "node",
  "id": 218593110,
  "lat": 47.4809227,
  "lon": 12.2647629,
  "tags": {
    "aerialway": "station",
    "ele": "1386",
    "name": "Kummereralm"
  }
},
{
  "type": "node",
  "id": 218593115,
  "lat": 47.4813777,
  "lon": 12.2537471,
  "tags": {
    "aerialway": "station",
    "ele": "1673",
    "name": "Kummereralm"
  }
},
{
  "type": "node",
  "id": 218593123,
  "lat": 47.4821075,
  "lon": 12.2529503,
  "tags": {
    "aerialway": "station",
    "ele": "1673",
    "name": "Eiberg II"
  }
},
{
  "type": "node",
  "id": 218593131,
  "lat": 47.4821492,
  "lon": 12.2530656,
  "tags": {
    "aerialway": "station",
    "ele": "1673",
    "name": "Eiberg I"
  }
},
{
  "type": "node",
  "id": 223530232,
  "lat": 46.5563319,
  "lon": 11.9227899,
  "tags": {
    "aerialway": "station",
    "ele": "2003",
    "name": "Piz Sorega"
  }
},
{
  "type": "node",
  "id": 223541707,
  "lat": 46.5605223,
  "lon": 11.9143181,
  "tags": {
    "aerialway": "station",
    "name": "La Freina"
  }
},
{
  "type": "node",
  "id": 223541713,
  "lat": 46.5561048,
  "lon": 11.9216730,
  "tags": {
    "aerialway": "station",
    "name": "La Freina"
  }
},
{
  "type": "node",
  "id": 223541719,
  "lat": 46.5550435,
  "lon": 11.9143934,
  "tags": {
    "aerialway": "station",
    "name": "La Brancia"
  }
},
{
  "type": "node",
  "id": 223541730,
  "lat": 46.5535936,
  "lon": 11.8908063,
  "tags": {
    "aerialway": "station",
    "name": "Braia Fraida"
  }
},
{
  "type": "node",
  "id": 223541736,
  "lat": 46.5521373,
  "lon": 11.9064753,
  "tags": {
    "aerialway": "station"
  }
},
{
  "type": "node",
  "id": 223541753,
  "lat": 46.5443458,
  "lon": 11.8840648,
  "tags": {
    "aerialway": "station",
    "name": "Arlara"
  }
},
{
  "type": "node",
  "id": 223541761,
  "lat": 46.5490903,
  "lon": 11.8984764,
  "tags": {
    "aerialway": "station",
    "name": "Arlara"
  }
},
{
  "type": "node",
  "id": 223545689,
  "lat": 46.5162787,
  "lon": 11.8851324,
  "tags": {
    "aerialway": "station",
    "name": "Vizza"
  }
},
{
  "type": "node",
  "id": 223545694,
  "lat": 46.5201998,
  "lon": 11.8733376,
  "tags": {
    "aerialway": "station",
    "name": "Cherz I"
  }
},
{
  "type": "node",
  "id": 223545699,
  "lat": 46.5165166,
  "lon": 11.8843718,
  "tags": {
    "aerialway": "station",
    "ele": "2095",
    "name": "Cherz I"
  }
},
{
  "type": "node",
  "id": 223545712,
  "lat": 46.5199709,
  "lon": 11.8743852,
  "tags": {
    "aerialway": "station",
    "name": "Cherz II"
  }
},
{
  "type": "node",
  "id": 223545716,
  "lat": 46.5166009,
  "lon": 11.8844711,
  "tags": {
    "aerialway": "station",
    "name": "Cherz II"
  }
},
{
  "type": "node",
  "id": 223606709,
  "lat": 46.5398816,
  "lon": 11.8896043,
  "tags": {
    "aerialway": "station"
  }
},
{
  "type": "node",
  "id": 223606716,
  "lat": 46.5451072,
  "lon": 11.8956848,
  "tags": {
    "aerialway": "station"
  }
},
{
  "type": "node",
  "id": 224060678,
  "lat": 46.5359539,
  "lon": 11.8896334,
  "tags": {
    "aerialway": "station",
    "ele": "1722",
    "name": "Pralongià"
  }
},
{
  "type": "node",
  "id": 224060688,
  "lat": 46.5350825,
  "lon": 11.9044209,
  "tags": {
    "aerialway": "station",
    "ele": "2033",
    "name": "Pralongià"
  }
},
{
  "type": "node",
  "id": 224065479,
  "lat": 46.5487565,
  "lon": 11.8714786,
  "tags": {
    "aerialway": "station",
    "name": "Boè"
  }
},
{
  "type": "node",
  "id": 224065487,
  "lat": 46.5266498,
  "lon": 11.8626920,
  "tags": {
    "aerialway": "station",
    "ele": "2198",
    "name": "Boè"
  }
},
{
  "type": "node",
  "id": 224071405,
  "lat": 46.5854680,
  "lon": 11.9023888,
  "tags": {
    "aerialway": "station",
    "name": "Gardenaccia"
  }
},
{
  "type": "node",
  "id": 224071414,
  "lat": 46.5840171,
  "lon": 11.9028231,
  "tags": {
    "aerialway": "station"
  }
},
{
  "type": "node",
  "id": 224071419,
  "lat": 46.5845832,
  "lon": 11.8998628,
  "tags": {
    "aerialway": "station"
  }
},
{
  "type": "node",
  "id": 224071428,
  "lat": 46.5816278,
  "lon": 11.9027911,
  "tags": {
    "aerialway": "station"
  }
},
{
  "type": "node",
  "id": 224082205,
  "lat": 46.5527965,
  "lon": 11.8862472,
  "tags": {
    "aerialway": "station",
    "ele": "2000",
    "name": "Col Alto"
  }
},
{
  "type": "node",
  "id": 224082210,
  "lat": 46.5472168,
  "lon": 11.8727385,
  "tags": {
    "aerialway": "station",
    "name": "Costes de L'Ega"
  }
},
{
  "type": "node",
  "id": 224082234,
  "lat": 46.5578616,
  "lon": 11.8548030,
  "tags": {
    "aerialway": "station",
    "name": "Col Pradat"
  }
},
{
  "type": "node",
  "id": 224082240,
  "lat": 46.5619157,
  "lon": 11.8586232,
  "tags": {
    "aerialway": "station",
    "name": "Col Pradat"
  }
},
{
  "type": "node",
  "id": 224082245,
  "lat": 46.5623862,
  "lon": 11.8526280,
  "tags": {
    "aerialway": "station",
    "name": "Forcelles"
  }
},
{
  "type": "node",
  "id": 224082251,
  "lat": 46.5589611,
  "lon": 11.8400636,
  "tags": {
    "aerialway": "station",
    "name": "Forcelles"
  }
},
{
  "type": "node",
  "id": 224082267,
  "lat": 46.5681310,
  "lon": 11.8506233,
  "tags": {
    "aerialway": "station"
  }
},
{
  "type": "node",
  "id": 224085769,
  "lat": 46.5992543,
  "lon": 11.9004054,
  "tags": {
    "aerialway": "station",
    "name": "Pradüc"
  }
},
{
  "type": "node",
  "id": 224087391,
  "lat": 46.6093052,
  "lon": 11.8964890,
  "tags": {
    "aerialway": "station",
    "name": "Santa Croce"
  }
},
{
  "type": "node",
  "id": 224087394,
  "lat": 46.6124442,
  "lon": 11.9234569,
  "tags": {
    "aerialway": "station",
    "ele": "1460",
    "name": "Santa Croce"
  }
},
{
  "type": "node",
  "id": 224424556,
  "lat": 46.8152040,
  "lon": 9.6072320,
  "tags": {
    "aerialway": "station",
    "ele": "1355",
    "name": "Tschiertschen",
    "operator": "STT",
    "uic_name": "Tschiertschen (Talstation)",
    "uic_ref": "8531274"
  }
},
{
  "type": "node",
  "id": 224424559,
  "lat": 46.8062017,
  "lon": 9.5964966,
  "tags": {
    "aerialway": "station",
    "ele": "1824",
    "name": "Waldstafel",
    "operator": "STT",
    "uic_name": "Waldstafel",
    "uic_ref": "8531275"
  }
},
{
  "type": "node",
  "id": 224424562,
  "lat": 46.8047771,
  "lon": 9.6022478,
  "tags": {
    "aerialway": "station",
    "ele": "1716",
    "name": "Spinazman",
    "operator": "STT",
    "uic_name": "Spinezman",
    "uic_ref": "8531276"
  }
},
{
  "type": "node",
  "id": 224766874,
  "lat": 46.5990692,
  "lon": 11.9001305,
  "tags": {
    "aerialway": "station",
    "name": "Sponata"
  }
},
{
  "type": "node",
  "id": 224772210,
  "lat": 46.5398065,
  "lon": 11.8890353,
  "tags": {
    "aerialway": "station"
  }
},
{
  "type": "node",
  "id": 224775106,
  "lat": 46.5555535,
  "lon": 11.9141596,
  "tags": {
    "aerialway": "station",
    "name": "Ciampai"
  }
},
{
  "type": "node",
  "id": 224775114,
  "lat": 46.5528498,
  "lon": 11.9210854,
  "tags": {
    "aerialway": "station",
    "name": "Ciampai"
  }
},
{
  "type": "node",
  "id": 224775119,
  "lat": 46.5546574,
  "lon": 11.9149083,
  "tags": {
    "aerialway": "station",
    "name": "Biok"
  }
},
{
  "type": "node",
  "id": 224775125,
  "lat": 46.5470511,
  "lon": 11.9099216,
  "tags": {
    "aerialway": "station",
    "ele": "2078",
    "name": "Biok"
  }
},
{
  "type": "node",
  "id": 224775135,
  "lat": 46.5504965,
  "lon": 11.9083181,
  "tags": {
    "aerialway": "station"
  }
},
{
  "type": "node",
  "id": 224779024,
  "lat": 46.5647306,
  "lon": 11.9062765,
  "tags": {
    "aerialway": "station"
  }
},
{
  "type": "node",
  "id": 224779030,
  "lat": 46.5809462,
  "lon": 11.9010558,
  "tags": {
    "aerialway": "station"
  }
},
{
  "type": "node",
  "id": 224779036,
  "lat": 46.5654693,
  "lon": 11.9059626,
  "tags": {
    "aerialway": "station",
    "ele": "2077",
    "name": "Piz la Ila"
  }
},
{
  "type": "node",
  "id": 224783781,
  "lat": 46.6084549,
  "lon": 11.8967319,
  "tags": {
    "aerialway": "station"
  }
},
{
  "type": "node",
  "id": 224797259,
  "lat": 46.6076178,
  "lon": 11.8973958,
  "tags": {
    "aerialway": "station"
  }
},
{
  "type": "node",
  "id": 240128752,
  "lat": 47.0406831,
  "lon": 10.5961120,
  "tags": {
    "aerialway": "station",
    "aerialway:access": "both",
    "aerialway:summer:access": "both",
    "ele": "1438",
    "name": "Talstation Komperdellbahn"
  }
},
{
  "type": "node",
  "id": 240129749,
  "lat": 47.0418170,
  "lon": 10.5685503,
  "tags": {
    "aerialway": "station",
    "ele": "1884"
  }
},
{
  "type": "node",
  "id": 240129752,
  "lat": 47.0413757,
  "lon": 10.5711496,
  "tags": {
    "aerialway": "station",
    "aerialway:access": "entry",
    "ele": "1845",
    "name": "Alpkopf"
  }
},
{
  "type": "node",
  "id": 240129755,
  "lat": 47.0360782,
  "lon": 10.5706722,
  "tags": {
    "aerialway": "station",
    "aerialway:access": "exit",
    "ele": "2029",
    "name": "Alpkopf",
    "public_transport": "station"
  }
},
{
  "type": "node",
  "id": 240129758,
  "lat": 47.0394335,
  "lon": 10.5598065,
  "tags": {
    "aerialway": "station",
    "ele": "1951"
  }
},
{
  "type": "node",
  "id": 240129760,
  "lat": 47.0398876,
  "lon": 10.5616072,
  "tags": {
    "aerialway": "station",
    "ele": "1990"
  }
},
{
  "type": "node",
  "id": 240129829,
  "lat": 47.0404601,
  "lon": 10.5445644,
  "tags": {
    "aerialway": "station",
    "aerialway:access": "entry",
    "description": "NUR WINTERBETRIEB!",
    "ele": "2075",
    "name": "Obere Scheidbahn"
  }
},
{
  "type": "node",
  "id": 240129830,
  "lat": 47.0354665,
  "lon": 10.5258447,
  "tags": {
    "aerialway": "station",
    "aerialway:access": "exit",
    "description": "NUR WINTERBETRIEB!",
    "ele": "2614",
    "name": "Obere Scheidbahn"
  }
},
{
  "type": "node",
  "id": 240129834,
  "lat": 47.0404333,
  "lon": 10.5448419,
  "tags": {
    "aerialway": "station",
    "aerialway:access": "entry",
    "description": "NUR WINTERBETRIEB!",
    "ele": "2075",
    "name": "Scheidbahn"
  }
},
{
  "type": "node",
  "id": 240129835,
  "lat": 47.0320914,
  "lon": 10.5298128,
  "tags": {
    "aerialway": "station",
    "aerialway:access": "exit",
    "description": "NUR WINTERBETRIEB!",
    "ele": "2438",
    "name": "Scheidbahn"
  }
},
{
  "type": "node",
  "id": 240129840,
  "lat": 47.0127153,
  "lon": 10.4731574,
  "tags": {
    "aerialway": "station",
    "aerialway:access": "exit",
    "description": "NUR WINTERBETRIEB!",
    "ele": "2828",
    "name": "Masnerkopfbahn"
  }
},
{
  "type": "node",
  "id": 240129842,
  "lat": 47.0137783,
  "lon": 10.4923865,
  "tags": {
    "aerialway": "station",
    "aerialway:access": "entry",
    "description": "NUR WINTERBETRIEB!",
    "ele": "2373",
    "name": "Masnerkopfbahn"
  }
},
{
  "type": "node",
  "id": 240129843,
  "lat": 47.0226932,
  "lon": 10.4957952,
  "tags": {
    "aerialway": "station",
    "aerialway:access": "exit",
    "description": "NUR WINTERBETRIEB!",
    "ele": "2645",
    "name": "Arrezjochbahn"
  }
},
{
  "type": "node",
  "id": 240129847,
  "lat": 47.0200344,
  "lon": 10.5132967,
  "tags": {
    "aerialway": "station",
    "aerialway:access": "exit",
    "description": "NUR WINTERBETRIEB",
    "ele": "2748",
    "name": "Pezidbahn"
  }
},
{
  "type": "node",
  "id": 240129848,
  "lat": 47.0289614,
  "lon": 10.5242358,
  "tags": {
    "aerialway": "station",
    "aerialway:access": "entry",
    "description": "NUR WINTERBETRIEB",
    "ele": "2332",
    "name": "Pezidbahn"
  }
},
{
  "type": "node",
  "id": 240139863,
  "lat": 46.0261250,
  "lon": 7.7680986,
  "tags": {
    "aerialway": "station",
    "name": "Patrullarve",
    "operator": "ZBAG",
    "uic_name": "Patrullarve",
    "uic_ref": "8530216",
    "wheelchair": "no"
  }
},
{
  "type": "node",
  "id": 240139866,
  "lat": 46.0166986,
  "lon": 7.7896254,
  "tags": {
    "aerialway": "station",
    "ele": "2571",
    "operator": "ZBAG",
    "uic_name": "Blauherd ZBAG-lgb",
    "uic_ref": "8530221",
    "wheelchair": "no"
  }
},
{
  "type": "node",
  "id": 240139870,
  "lat": 46.0167109,
  "lon": 7.7856419,
  "tags": {
    "aerialway": "station",
    "name": "Blauherd",
    "wheelchair": "no"
  }
},
{
  "type": "node",
  "id": 240139875,
  "lat": 46.0090146,
  "lon": 7.7875235,
  "tags": {
    "aerialway": "station",
    "name": "Gant"
  }
},
{
  "type": "node",
  "id": 240240207,
  "lat": 46.0146424,
  "lon": 7.7426639,
  "tags": {
    "aerialway": "station",
    "ele": "1620",
    "name": "Zermatt",
    "operator": "ZBAG",
    "public_transport": "station",
    "uic_name": "Zermatt ZBAG-lz",
    "uic_ref": "8530206",
    "wheelchair": "yes"
  }
},
{
  "type": "node",
  "id": 240240209,
  "lat": 46.0016707,
  "lon": 7.7319625,
  "tags": {
    "aerialway": "station",
    "ele": "1864",
    "name": "Furi",
    "operator": "ZBAG",
    "uic_name": "Furi",
    "uic_ref": "8530207",
    "wheelchair": "yes"
  }
},
{
  "type": "node",
  "id": 240240211,
  "lat": 46.0013446,
  "lon": 7.7322980,
  "tags": {
    "aerialway": "station",
    "ele": "1864",
    "name": "Furi",
    "operator": "ZBAG",
    "uic_name": "Furi",
    "uic_ref": "8530207",
    "wheelchair": "yes"
  }
},
{
  "type": "node",
  "id": 240240214,
  "lat": 46.0002733,
  "lon": 7.7352235,
  "tags": {
    "aerialway": "station"
  }
},
{
  "type": "node",
  "id": 240240218,
  "lat": 46.0012251,
  "lon": 7.7320541,
  "tags": {
    "aerialway": "station",
    "ele": "1864",
    "name": "Furi",
    "operator": "ZBAG",
    "uic_name": "Furi",
    "uic_ref": "8530207",
    "wheelchair": "yes"
  }
},
{
  "type": "node",
  "id": 240240219,
  "lat": 45.9717840,
  "lon": 7.7223739,
  "tags": {
    "aerialway": "station",
    "name": "Trockener Steg",
    "wheelchair": "yes"
  }
},
{
  "type": "node",
  "id": 240248391,
  "lat": 45.9699793,
  "lon": 7.7222042,
  "tags": {
    "aerialway": "station",
    "ele": "2939",
    "name": "Gandegg",
    "operator": "ZBAG",
    "uic_name": "Trockener Steg",
    "uic_ref": "8530211"
  }
},
{
  "type": "node",
  "id": 240248397,
  "lat": 45.9441128,
  "lon": 7.7117018,
  "tags": {
    "aerialway": "station",
    "name": "Gandegg"
  }
},
{
  "type": "node",
  "id": 240287130,
  "lat": 46.0147437,
  "lon": 7.7429893,
  "tags": {
    "aerialway": "station",
    "ele": "1620",
    "name": "Zermatt",
    "operator": "ZBAG",
    "public_transport": "station",
    "uic_name": "Zermatt ZBAG-lz",
    "uic_ref": "8530206"
  }
},
{
  "type": "node",
  "id": 240287133,
  "lat": 46.0014841,
  "lon": 7.7320619,
  "tags": {
    "aerialway": "station",
    "ele": "1864",
    "name": "Furi",
    "operator": "ZBAG",
    "uic_name": "Furi",
    "uic_ref": "8530207"
  }
},
{
  "type": "node",
  "id": 240287137,
  "lat": 45.9941222,
  "lon": 7.7548434,
  "tags": {
    "aerialway": "station",
    "name": "Riffelberg"
  }
},
{
  "type": "node",
  "id": 240324384,
  "lat": 45.9879614,
  "lon": 7.7140316,
  "tags": {
    "aerialway": "station",
    "name": "Furgg"
  }
},
{
  "type": "node",
  "id": 240324404,
  "lat": 45.9454264,
  "lon": 7.7118096,
  "tags": {
    "aerialway": "station",
    "name": "Testa"
  }
},
{
  "type": "node",
  "id": 240324408,
  "lat": 45.9335275,
  "lon": 7.7084292,
  "tags": {
    "aerialway": "station",
    "ele": "3480",
    "name": "Testa"
  }
},
{
  "type": "node",
  "id": 240324415,
  "lat": 45.9392015,
  "lon": 7.7291095,
  "tags": {
    "aerialway": "station",
    "ele": "3820",
    "name": "Matterhorn Glacier Paradise",
    "operator": "ZBAG",
    "uic_name": "Klein Matterhorn",
    "uic_ref": "8530210"
  }
},
{
  "type": "node",
  "id": 240324438,
  "lat": 45.9342756,
  "lon": 7.6336586,
  "tags": {
    "aerialway": "station",
    "ele": "2050",
    "name": "Plan Maison"
  }
},
{
  "type": "node",
  "id": 240324453,
  "lat": 45.9417450,
  "lon": 7.6564531,
  "tags": {
    "aerialway": "station",
    "ele": "2555",
    "name": "Plan Maison"
  }
},
{
  "type": "node",
  "id": 240324465,
  "lat": 45.9448701,
  "lon": 7.7084770,
  "tags": {
    "aerialway": "station",
    "ele": "3301",
    "name": "Bontadini",
    "name:de": "Theodulpass",
    "name:en": "Theodul Pass",
    "name:fr": "Col de Saint-Théodule",
    "name:gsw": "Theoduljoch",
    "name:it": "Colle del Teodulo",
    "name:ro": "Pasul Theodul"
  }
},
{
  "type": "node",
  "id": 240324468,
  "lat": 45.9341259,
  "lon": 7.6336407,
  "tags": {
    "aerialway": "station",
    "ele": "2050",
    "name": "Plan Maison"
  }
},
{
  "type": "node",
  "id": 240324474,
  "lat": 45.9371279,
  "lon": 7.6313722,
  "tags": {
    "aerialway": "station",
    "ele": "2009",
    "name": "Cretaz"
  }
},
{
  "type": "node",
  "id": 240366794,
  "lat": 47.0516914,
  "lon": 10.5919898,
  "tags": {
    "aerialway": "station",
    "aerialway:access": "both",
    "aerialway:summer:access": "both",
    "ele": "1837",
    "name": "Sunliner"
  }
},
{
  "type": "node",
  "id": 240369885,
  "lat": 47.0610269,
  "lon": 10.6198268,
  "tags": {
    "aerialway": "station",
    "ele": "1551",
    "name": "Mittelstation Sonnenbahn"
  }
},
{
  "type": "node",
  "id": 240369888,
  "lat": 47.0567485,
  "lon": 10.6138236,
  "tags": {
    "aerialway": "station",
    "aerialway:access": "both",
    "aerialway:summer:access": "both",
    "ele": "1477",
    "name": "Sonnenbahn Ladis-Fiss"
  }
},
{
  "type": "node",
  "id": 240369898,
  "lat": 47.0772082,
  "lon": 10.5984085,
  "tags": {
    "aerialway": "station",
    "ele": "2501"
  }
},
{
  "type": "node",
  "id": 241007883,
  "lat": 45.2911316,
  "lon": 6.5945526,
  "tags": {
    "aerialway": "station",
    "aerialway:access": "exit",
    "ele": "2567",
    "name": "Cascades"
  }
},
{
  "type": "node",
  "id": 241021640,
  "lat": 45.2866591,
  "lon": 6.5834180,
  "tags": {
    "aerialway": "station",
    "aerialway:access": "entry",
    "ele:local": "2354",
    "name": "Portette"
  }
},
{
  "type": "node",
  "id": 241021643,
  "lat": 45.2719022,
  "lon": 6.5913142,
  "tags": {
    "aerialway": "station",
    "aerialway:access": "exit",
    "ele:local": "2794",
    "name": "Portette"
  }
},
{
  "type": "node",
  "id": 241021645,
  "lat": 45.2942801,
  "lon": 6.5645469,
  "tags": {
    "aerialway": "station",
    "aerialway:access": "both",
    "ele:local": "2105",
    "internet_access": "wlan",
    "name": "Cairn / Caron"
  }
},
{
  "type": "node",
  "id": 241021648,
  "lat": 45.2806138,
  "lon": 6.5626037,
  "tags": {
    "aerialway": "station",
    "aerialway:access": "both",
    "ele:local": "2320",
    "internet_access": "wlan",
    "name": "Caron / Cime Caron"
  }
},
{
  "type": "node",
  "id": 241021650,
  "lat": 45.2638718,
  "lon": 6.5602865,
  "tags": {
    "aerialway": "station",
    "aerialway:access": "both",
    "ele": "3186",
    "name": "Cime Caron"
  }
},
{
  "type": "node",
  "id": 241033972,
  "lat": 45.2952649,
  "lon": 6.5616208,
  "tags": {
    "aerialway": "station",
    "aerialway:access": "entry",
    "ele": "2068",
    "name": "Boismint"
  }
},
{
  "type": "node",
  "id": 241033978,
  "lat": 45.3256959,
  "lon": 6.5306922,
  "tags": {
    "aerialway": "station",
    "aerialway:access": "entry",
    "name": "Tortollet"
  }
},
{
  "type": "node",
  "id": 241038078,
  "lat": 45.3224768,
  "lon": 6.5389369,
  "tags": {
    "aerialway": "station",
    "aerialway:access": "both",
    "ele:local": "1820",
    "name": "Roc 1"
  }
},
{
  "type": "node",
  "id": 241038081,
  "lat": 45.3304286,
  "lon": 6.5547509,
  "tags": {
    "aerialway": "station",
    "aerialway:access": "both",
    "ele:local": "2320",
    "name": "Roc 1"
  }
},
{
  "type": "node",
  "id": 241046059,
  "lat": 45.3429307,
  "lon": 6.5787897,
  "tags": {
    "aerialway": "station",
    "ele:local": "2405",
    "name": "Châtelet"
  }
},
{
  "type": "node",
  "id": 241054251,
  "lat": 45.3427848,
  "lon": 6.5803400,
  "tags": {
    "aerialway": "station",
    "aerialway:access": "both",
    "ele": "2400",
    "name": "Plattières 3"
  }
},
{
  "type": "node",
  "id": 241056080,
  "lat": 45.3361082,
  "lon": 6.5818017,
  "tags": {
    "aerialway": "station",
    "aerialway:access": "entry",
    "ele:local": "2302",
    "name": "Côte Brune"
  }
},
{
  "type": "node",
  "id": 241056082,
  "lat": 45.3192768,
  "lon": 6.5799890,
  "tags": {
    "aerialway": "station",
    "aerialway:access": "exit",
    "ele:local": "2842",
    "name": "Côte Brune"
  }
},
{
  "type": "node",
  "id": 241074994,
  "lat": 45.2986423,
  "lon": 6.5777589,
  "tags": {
    "aerialway": "station",
    "aerialway:access": "both",
    "ele:local": "2294",
    "name": "Cairn"
  }
},
{
  "type": "node",
  "id": 241616523,
  "lat": 45.3192792,
  "lon": 6.5356931,
  "tags": {
    "aerialway": "station",
    "aerialway:access": "both",
    "ele:local": "1728",
    "name": "Masse 1"
  }
},
{
  "type": "node",
  "id": 241616528,
  "lat": 45.2973929,
  "lon": 6.5085532,
  "tags": {
    "aerialway": "station",
    "aerialway:access": "both",
    "ele": "2804",
    "name": "Masse 2"
  }
},
{
  "type": "node",
  "id": 241622593,
  "lat": 45.3163507,
  "lon": 6.5186572,
  "tags": {
    "aerialway": "station",
    "aerialway:access": "entry",
    "ele": "2109",
    "name": "Lac Noir"
  }
},
{
  "type": "node",
  "id": 241622595,
  "lat": 45.3088998,
  "lon": 6.5032142,
  "tags": {
    "aerialway": "station",
    "aerialway:access": "exit",
    "ele": "2599"
  }
},
{
  "type": "node",
  "id": 241627460,
  "lat": 45.2949988,
  "lon": 6.5623170,
  "tags": {
    "aerialway": "station",
    "aerialway:access": "entry",
    "ele": "2077",
    "name": "Moutière"
  }
},
{
  "type": "node",
  "id": 241627462,
  "lat": 45.2825277,
  "lon": 6.5728593,
  "tags": {
    "aerialway": "station",
    "aerialway:access": "exit",
    "ele": "2511",
    "name": "Moutière"
  }
},
{
  "type": "node",
  "id": 241627466,
  "lat": 45.2862378,
  "lon": 6.5738534,
  "tags": {
    "aerialway": "station",
    "aerialway:access": "exit",
    "ele:local": "2456",
    "name": "Deux Lacs"
  }
},
{
  "type": "node",
  "id": 241628880,
  "lat": 45.2809651,
  "lon": 6.5681663,
  "tags": {
    "aerialway": "station",
    "aerialway:access": "both",
    "ele:local": "2458",
    "name": "Grand Fond"
  }
},
{
  "type": "node",
  "id": 241631610,
  "lat": 45.2466741,
  "lon": 6.5702042,
  "tags": {
    "aerialway": "station",
    "aerialway:access": "entry",
    "aerialway:bubble": "no",
    "aerialway:occupancy": "6",
    "ele:local": "2350",
    "name": "Rosaël"
  }
},
{
  "type": "node",
  "id": 241631615,
  "lat": 45.2513046,
  "lon": 6.5878161,
  "tags": {
    "aerialway": "station",
    "aerialway:access": "exit",
    "ele:local": "2786",
    "name": "Peyron"
  }
},
{
  "type": "node",
  "id": 241631617,
  "lat": 45.2505797,
  "lon": 6.5869788,
  "tags": {
    "aerialway": "station",
    "aerialway:access": "entry",
    "ele:local": "2754",
    "name": "Bouchet"
  }
},
{
  "type": "node",
  "id": 241637321,
  "lat": 45.2763678,
  "lon": 6.5796595,
  "tags": {
    "aerialway": "station",
    "aerialway:access": "exit",
    "name": "Plateau"
  }
},
{
  "type": "node",
  "id": 241637323,
  "lat": 45.2876951,
  "lon": 6.5833160,
  "tags": {
    "aerialway": "station",
    "aerialway:access": "entry",
    "ele:local": "2350",
    "name": "Moraine"
  }
},
{
  "type": "node",
  "id": 241637324,
  "lat": 45.2728223,
  "lon": 6.6061673,
  "tags": {
    "aerialway": "station",
    "aerialway:access": "exit",
    "ele:local": "2816",
    "name": "Moraine"
  }
},
{
  "type": "node",
  "id": 241637327,
  "lat": 45.2951893,
  "lon": 6.5719770,
  "tags": {
    "aerialway": "station",
    "aerialway:access": "entry",
    "ele": "2208",
    "name": "Plein Sud"
  }
},
{
  "type": "node",
  "id": 241637329,
  "lat": 45.3055928,
  "lon": 6.5887150,
  "tags": {
    "aerialway": "station",
    "aerialway:access": "exit",
    "ele": "2584",
    "name": "Plein Sud"
  }
},
{
  "type": "node",
  "id": 241637331,
  "lat": 45.3050295,
  "lon": 6.5859941,
  "tags": {
    "aerialway": "station",
    "aerialway:access": "both",
    "ele:local": "2544",
    "name": "3 Vallées"
  }
},
{
  "type": "node",
  "id": 243633525,
  "lat": 47.0868358,
  "lon": 11.4597387,
  "tags": {
    "aerialway": "station",
    "name": "Bergeralmbahn"
  }
},
{
  "type": "node",
  "id": 243633528,
  "lat": 47.0764709,
  "lon": 11.4538530,
  "tags": {
    "aerialway": "station",
    "name": "Hoher Turm"
  }
},
{
  "type": "node",
  "id": 243633529,
  "lat": 47.0607595,
  "lon": 11.4433096,
  "tags": {
    "aerialway": "station",
    "name": "Hoher Turm"
  }
},
{
  "type": "node",
  "id": 243633530,
  "lat": 47.0761688,
  "lon": 11.4530993,
  "tags": {
    "aerialway": "station",
    "name": "Steinboden"
  }
},
{
  "type": "node",
  "id": 243633531,
  "lat": 47.0694088,
  "lon": 11.4488754,
  "tags": {
    "aerialway": "station",
    "name": "Steinboden"
  }
},
{
  "type": "node",
  "id": 243685443,
  "lat": 47.1544088,
  "lon": 13.0605760,
  "tags": {
    "aerialway": "station",
    "ele": "2050",
    "name": "Schlossalmbahn III"
  }
},
{
  "type": "node",
  "id": 243685448,
  "lat": 47.1540488,
  "lon": 13.0782695,
  "tags": {
    "aerialway": "station",
    "ele": "1558",
    "name": "Sendleitenbahn"
  }
},
{
  "type": "node",
  "id": 243685449,
  "lat": 47.1543643,
  "lon": 13.0620193,
  "tags": {
    "aerialway": "station",
    "ele": "2019",
    "name": "Sendleitenbahn"
  }
},
{
  "type": "node",
  "id": 243685451,
  "lat": 47.1471805,
  "lon": 13.0649889,
  "tags": {
    "aerialway": "station",
    "ele": "1831",
    "piste:name": "Weitmoser"
  }
},
{
  "type": "node",
  "id": 243685453,
  "lat": 47.1484885,
  "lon": 13.0529795,
  "tags": {
    "aerialway": "station",
    "ele": "2080",
    "piste:name": "Weitmoser"
  }
},
{
  "type": "node",
  "id": 243685455,
  "lat": 47.1492369,
  "lon": 13.0532078,
  "tags": {
    "aerialway": "station",
    "ele": "2082",
    "name": "Hohe Scharte"
  }
},
{
  "type": "node",
  "id": 243721569,
  "lat": 47.1764433,
  "lon": 9.3002863,
  "tags": {
    "aerialway": "station",
    "ele": "1435",
    "name": "Alp Sellamatt",
    "uic_name": "Alp Sellamatt (Ruestel Talst.)",
    "uic_ref": "8531045"
  }
},
{
  "type": "node",
  "id": 243721570,
  "lat": 47.1668827,
  "lon": 9.3030808,
  "tags": {
    "aerialway": "station",
    "ele": "1722",
    "name": "Ruestel",
    "uic_name": "Ruestel",
    "uic_ref": "8531046"
  }
},
{
  "type": "node",
  "id": 243721573,
  "lat": 47.1821785,
  "lon": 9.2962587,
  "tags": {
    "aerialway": "station",
    "ele": "1395",
    "name": "Sellamatt (Alt St.Johann)",
    "operator": "SAS",
    "uic_name": "Alp Sellamatt",
    "uic_ref": "8530485"
  }
},
{
  "type": "node",
  "id": 243721574,
  "lat": 47.1819706,
  "lon": 9.2964696,
  "tags": {
    "aerialway": "station",
    "ele": "1395",
    "name": "Sellamatt (Zinggen)",
    "operator": "SAS",
    "uic_name": "Alp Sellamatt",
    "uic_ref": "8530485"
  }
},
{
  "type": "node",
  "id": 243721576,
  "lat": 47.1769260,
  "lon": 9.2978697,
  "tags": {
    "aerialway": "station",
    "name": "Zinggen (Sellamatt)"
  }
},
{
  "type": "node",
  "id": 243721698,
  "lat": 47.1852575,
  "lon": 9.3118127,
  "tags": {
    "aerialway": "station",
    "ele": "1358",
    "name": "Iltios (Chäserrugg)",
    "start_date": "1972"
  }
},
{
  "type": "node",
  "id": 243721699,
  "lat": 47.1552140,
  "lon": 9.3123356,
  "tags": {
    "aerialway": "station",
    "ele": "2255",
    "name": "Chäserrugg (Iltios)",
    "operator": "TBBU",
    "start_date": "1972",
    "uic_name": "Chäserrugg",
    "uic_ref": "8506274"
  }
},
{
  "type": "node",
  "id": 243721801,
  "lat": 47.1844515,
  "lon": 9.3198288,
  "tags": {
    "aerialway": "station",
    "name": "Espel",
    "start_date": "2015",
    "uic_name": "Espel (Talst.Stöfelibahn)",
    "uic_ref": "8500277"
  }
},
{
  "type": "node",
  "id": 244067693,
  "lat": 47.0923464,
  "lon": 9.2799548,
  "tags": {
    "aerialway": "station",
    "ele": "1385",
    "name": "Tannenboden (Chrüz)",
    "operator": "MBF",
    "uic_name": "Tannenboden (Sesselbahn Chrüz)",
    "uic_ref": "8530841"
  }
},
{
  "type": "node",
  "id": 244067694,
  "lat": 47.0829996,
  "lon": 9.2700711,
  "tags": {
    "aerialway": "station",
    "ele": "1639",
    "name": "Chrüz",
    "operator": "MBF",
    "uic_name": "Chrüz (Flumserberg)",
    "uic_ref": "8530842"
  }
},
{
  "type": "node",
  "id": 244067695,
  "lat": 47.0890593,
  "lon": 9.3034859,
  "tags": {
    "aerialway": "station",
    "ele": "1215",
    "name": "Flumserberg Tannenheim",
    "operator": "PBF",
    "uic_name": "Flumserberg Tannenheim",
    "uic_ref": "8530496"
  }
},
{
  "type": "node",
  "id": 244067699,
  "lat": 47.0802315,
  "lon": 9.2884087,
  "tags": {
    "aerialway": "station",
    "ele": "1576",
    "name": "Prodalp (Prodkamm)",
    "operator": "STP",
    "uic_name": "Prodalp (Prodkamm)",
    "uic_ref": "8530912"
  }
},
{
  "type": "node",
  "id": 244067700,
  "lat": 47.0737978,
  "lon": 9.2679952,
  "tags": {
    "aerialway": "station",
    "ele": "1944",
    "name": "Prodkamm",
    "uic_name": "Prodkamm",
    "uic_ref": "8530498"
  }
},
{
  "type": "node",
  "id": 244067701,
  "lat": 47.0920641,
  "lon": 9.2805020,
  "tags": {
    "aerialway": "station",
    "ele": "1398",
    "name": "Tannenboden (Maschgenkamm)",
    "operator": "MBF",
    "uic_name": "Tannenboden (Maschgenkammbahn)",
    "uic_ref": "8530494"
  }
},
{
  "type": "node",
  "id": 244067704,
  "lat": 47.0697969,
  "lon": 9.2533931,
  "tags": {
    "aerialway": "station",
    "aerialway:summer:access": "both",
    "ele": "2020",
    "name": "Maschgenkamm",
    "operator": "LTM",
    "uic_name": "Maschgenkamm",
    "uic_ref": "8530495"
  }
},
{
  "type": "node",
  "id": 244067705,
  "lat": 47.0822723,
  "lon": 9.2720618,
  "tags": {
    "aerialway": "station",
    "name": "Obersäss (Stelli)",
    "uic_name": "Flumserberg Obersäss",
    "uic_ref": "8530963"
  }
},
{
  "type": "node",
  "id": 244067706,
  "lat": 47.0754204,
  "lon": 9.2544627,
  "tags": {
    "aerialway": "station",
    "name": "Stelli",
    "uic_name": "Oberterzen Stelli",
    "uic_ref": "8531156"
  }
},
{
  "type": "node",
  "id": 244067708,
  "lat": 47.0697135,
  "lon": 9.2530476,
  "tags": {
    "aerialway": "station",
    "ele": "2020",
    "name": "Maschgenkamm",
    "operator": "LTM",
    "uic_name": "Maschgenkamm (Arve)",
    "uic_ref": "8530899"
  }
},
{
  "type": "node",
  "id": 244067720,
  "lat": 47.0800110,
  "lon": 9.2683665,
  "tags": {
    "aerialway": "station",
    "name": "Chrüz (Twärchamm)",
    "uic_name": "Flumserberg Chrüz (Twärchamm)",
    "uic_ref": "8531309"
  }
},
{
  "type": "node",
  "id": 244067721,
  "lat": 47.0765303,
  "lon": 9.2714545,
  "tags": {
    "aerialway": "station",
    "name": "Twärchamm",
    "uic_name": "Twärchamm",
    "uic_ref": "8531310"
  }
},
{
  "type": "node",
  "id": 244067724,
  "lat": 47.0938068,
  "lon": 9.2807687,
  "tags": {
    "aerialway": "station",
    "ele": "1390",
    "name": "Flumserberg Tannenboden",
    "operator": "LUFAG",
    "uic_name": "Flumserberg Tannenboden",
    "uic_ref": "8530493"
  }
},
{
  "type": "node",
  "id": 244067725,
  "lat": 47.1027870,
  "lon": 9.2572050,
  "tags": {
    "aerialway": "station",
    "ele": "671",
    "name": "Oberterzen (Mittelstation)",
    "operator": "LUFAG",
    "uic_name": "Oberterzen (Mittelstation)",
    "uic_ref": "8509451"
  }
},
{
  "type": "node",
  "id": 244067726,
  "lat": 47.1132875,
  "lon": 9.2550530,
  "tags": {
    "aerialway": "station",
    "ele": "426",
    "name": "Unterterzen (Talstation)",
    "operator": "LUFAG",
    "uic_name": "Unterterzen (Talstation)",
    "uic_ref": "8509450"
  }
},
{
  "type": "node",
  "id": 244067727,
  "lat": 47.0880498,
  "lon": 9.2864549,
  "tags": {
    "aerialway": "station"
  }
},
{
  "type": "node",
  "id": 244067728,
  "lat": 47.0895123,
  "lon": 9.2843556,
  "tags": {
    "aerialway": "station"
  }
},
{
  "type": "node",
  "id": 244478032,
  "lat": 46.8357353,
  "lon": 9.2154305,
  "tags": {
    "aerialway": "station",
    "name": "Crap Sogn Gion (Plaun)",
    "public_transport": "station",
    "uic_name": "Crap Sogn Gion (Plaun)",
    "uic_ref": "8531220"
  }
},
{
  "type": "node",
  "id": 244501518,
  "lat": 46.8453360,
  "lon": 9.2330070,
  "tags": {
    "aerialway": "station",
    "ele": "1630",
    "name": "Plaun",
    "operator": "BFL",
    "public_transport": "station",
    "uic_name": "Plaun",
    "uic_ref": "8530778"
  }
},
{
  "type": "node",
  "id": 244501519,
  "lat": 46.8335730,
  "lon": 9.2812128,
  "tags": {
    "aerialway": "station",
    "name": "Flims",
    "public_transport": "station",
    "shop": "ticket"
  }
},
{
  "type": "node",
  "id": 244501522,
  "lat": 46.8343754,
  "lon": 9.2158085,
  "tags": {
    "aerialway": "station",
    "ele": "2201",
    "name": "Crap Sogn Gion (Curnius)",
    "operator": "BFL",
    "public_transport": "station",
    "uic_name": "Crap Sogn Gion (Curnius)",
    "uic_ref": "8531221"
  }
},
{
  "type": "node",
  "id": 244501523,
  "lat": 46.8205977,
  "lon": 9.2331419,
  "tags": {
    "aerialway": "station",
    "ele": "1650",
    "name": "Curnius (Crap Sogn Gion)",
    "operator": "BFL",
    "public_transport": "station",
    "uic_name": "Curnius (Crap Sogn Gion)",
    "uic_ref": "8530875"
  }
},
{
  "type": "node",
  "id": 244501524,
  "lat": 46.8201670,
  "lon": 9.2632540,
  "tags": {
    "aerialway": "station",
    "ele": "1102",
    "name": "Laax Murschetg (Talstation)",
    "operator": "BFL",
    "public_transport": "station",
    "shop": "ticket",
    "uic_name": "Laax Murschetg (Talstation)",
    "uic_ref": "8530785"
  }
},
{
  "type": "node",
  "id": 244894316,
  "lat": 46.8640839,
  "lon": 11.3089874,
  "tags": {
    "aerialway": "station",
    "name": "Ratschings-Jaufen"
  }
},
{
  "type": "node",
  "id": 244894320,
  "lat": 46.8478180,
  "lon": 11.3049965,
  "tags": {
    "aerialway": "station",
    "name": "Ratschings-Jaufen"
  }
},